,NAME,ADDRESS,CITY,COUNTY,LON,LAT,geometry
58,白门寺,华侨新街47号,温州市,瓯海区,120.637344,27.89333,POINT (120.637344 27.89333)
60,大茶山,南大线,温州市,瓯海区,120.734673,27.926804,POINT (120.734673 27.926804)
73,王村仙潭景区,三坑段,丽水市,青田县,119.976585,28.314026,POINT (119.976585 28.314026)
109,凤音庵,,湖州市,安吉县,119.629677,30.772945,POINT (119.629677 30.772945)
112,湖州船模馆,红门馆前108号,湖州市,吴兴区,120.102608,30.862513,POINT (120.102608 30.862513)
125,石海索桥,,温州市,苍南县,120.294975,27.513561,POINT (120.294975 27.513561)
152,元家殿,,衢州市,江山市,118.561607,28.392714,POINT (118.561607 28.392714)
189,西山头,,台州市,玉环市,121.345757,28.09248,POINT (121.345757 28.09248)
193,斗鸡坳桥,,宁波市,镇海区,121.531273,30.047033,POINT (121.531273 30.047033)
199,连头山,403乡道,宁波市,宁海县,121.412262,29.244982,POINT (121.412262 29.244982)
201,天峰塔,,宁波市,象山县,121.956749,29.240835,POINT (121.956749 29.240835)
203,砚墨屿,,台州市,玉环市,121.412407,28.110615,POINT (121.412407 28.110615)
217,跨湖桥,湘湖路132号湘湖旅游度假区内,杭州市,萧山区,120.226204,30.14435,POINT (120.226204 30.14435)
227,灵山,,宁波市,镇海区,121.531494,29.986521,POINT (121.531494 29.986521)
231,黄泥岗,,湖州市,安吉县,119.64756,30.671446,POINT (119.64756 30.671446)
255,乌镇西栅景区,石佛南路18号乌镇内,嘉兴市,桐乡市,120.484665,30.749683,POINT (120.484665 30.749683)
261,逢源双桥,乌镇东栅景区内,嘉兴市,桐乡市,120.499443,30.739334,POINT (120.499443 30.739334)
263,致安桥,乌镇西栅景区内,嘉兴市,桐乡市,120.484154,30.748278,POINT (120.484154 30.748278)
289,庙湾,,绍兴市,越城区,120.616425,29.967356,POINT (120.616425 29.967356)
290,思鑫坊建筑群,学士路19附近,杭州市,上城区,120.165543,30.255669,POINT (120.165543 30.255669)
293,拱宸桥,桥弄街2附近,杭州市,拱墅区,120.139473,30.318195,POINT (120.139473 30.318195)
299,曲廊,瑶琳东琳村垂云通天河内,杭州市,桐庐县,119.532211,29.924179,POINT (119.532211 29.924179)
324,杭州孔庙,府学巷8,杭州市,上城区,120.161919,30.241774,POINT (120.161919 30.241774)
350,半廊,,台州市,玉环市,121.362587,28.097876,POINT (121.362587 28.097876)
406,小灵山,,宁波市,镇海区,121.526733,29.988766,POINT (121.526733 29.988766)
452,太湖源(小九寨沟)景区,太湖源镇白沙村,杭州市,临安市,119.554085,30.395273,POINT (119.554085 30.395273)
453,太湖源(小九寨沟)景区,太湖源镇白沙村,杭州市,临安区,119.554085,30.395273,POINT (119.554085 30.395273)
458,石塘镇,,台州市,温岭市,121.606201,28.278557,POINT (121.606201 28.278557)
577,古艮山门,环城北路与建国北路交叉处,杭州市,下城区,120.178337,30.275236,POINT (120.178337 30.275236)
584,湘溢楼,湘湖旅游度假区越王路108号下孙文化村内,杭州市,萧山区,120.2341,30.156351,POINT (120.2341 30.156351)
586,江涨桥,大兜路附近,杭州市,拱墅区,120.147545,30.296013,POINT (120.147545 30.296013)
611,古钱塘门,湖滨路北端,杭州市,上城区,120.159309,30.257641,POINT (120.159309 30.257641)
628,青藤书屋,前观巷大乘弄10号,绍兴市,越城区,120.578682,29.99477,POINT (120.578682 29.99477)
633,大奇山国家森林公园,富春江南岸(近大奇山),杭州市,桐庐县,119.731415,29.755701,POINT (119.731415 29.755701)
647,古田山,古田山庄,衢州市,开化县,118.115089,29.240229,POINT (118.115089 29.240229)
669,浙西三峡,昌化镇河桥古镇,杭州市,临安市,119.258804,30.089569,POINT (119.258804 30.089569)
670,浙西三峡,昌化镇河桥古镇,杭州市,临安区,119.258804,30.089569,POINT (119.258804 30.089569)
698,峰文大战纪念碑,707乡道附近,温州市,泰顺县,120.160477,27.485128,POINT (120.160477 27.485128)
714,九天台,白塔镇神仙居国家级风景名胜区内,台州市,仙居县,120.61187,28.673798,POINT (120.61187 28.673798)
767,九咆界风景区,屏门乡上西村,杭州市,淳安县,119.007744,29.931217,POINT (119.007744 29.931217)
801,马寅初旧居,庆春路210号,杭州市,下城区,120.165932,30.258793,POINT (120.165932 30.258793)
803,鼓楼,中山南路431号,杭州市,上城区,120.171349,30.238005,POINT (120.171349 30.238005)
810,龙门漂流,千岛湖左口乡左光线附近,杭州市,淳安县,119.085167,29.74658,POINT (119.085167 29.74658)
812,通天飞瀑风景区,胥口镇上连村,杭州市,富阳区,119.629211,30.001514,POINT (119.629211 30.001514)
890,湘里坊,湘湖路132号湘湖旅游度假区内,杭州市,萧山区,120.235428,30.158751,POINT (120.235428 30.158751)
908,汪宅,望江路266号,杭州市,上城区,120.173012,30.237976,POINT (120.173012 30.237976)
914,广济桥,南渡路,宁波市,奉化区,121.427528,29.710566,POINT (121.427528 29.710566)
962,浪石金滩,石埠,杭州市,桐庐县,119.576408,29.877419,POINT (119.576408 29.877419)
1014,白云源景区,富春江镇,杭州市,桐庐县,119.724342,29.706863,POINT (119.724342 29.706863)
1015,琴溪香谷景区,瑶琳镇,杭州市,桐庐县,119.593071,29.960014,POINT (119.593071 29.960014)
1064,石莲亭,灵隐路17附近,杭州市,西湖区,120.114777,30.243074,POINT (120.114777 30.243074)
1204,航泊三水,小河路60号,杭州市,拱墅区,120.137665,30.306667,POINT (120.137665 30.306667)
1247,紫气东来,天宁路94号,台州市,临海市,121.117271,28.841133,POINT (121.117271 28.841133)
1249,观音宝殿,东洋大道,台州市,临海市,121.590034,28.814545,POINT (121.590034 28.814545)
1250,千年曙光碑(阵车),张米线,台州市,临海市,120.925941,28.806723,POINT (120.925941 28.806723)
1254,天元塔,018乡道,绍兴市,诸暨市,120.118301,29.677271,POINT (120.118301 29.677271)
1259,长寿亭,306乡道,宁波市,奉化区,121.366135,29.54414,POINT (121.366135 29.54414)
1260,蕺山书院,文笔塔附近,绍兴市,越城区,120.586342,30.009537,POINT (120.586342 30.009537)
1263,龙王殿,,绍兴市,上虞区,120.933701,30.035206,POINT (120.933701 30.035206)
1266,五圣殿,,绍兴市,新昌县,120.831001,29.261728,POINT (120.831001 29.261728)
1273,越王史迹,道墟镇称山风景区内,绍兴市,上虞区,120.774467,30.058697,POINT (120.774467 30.058697)
1274,望柯亭,柯岩大道518号柯岩风景区,绍兴市,柯桥区,120.484413,30.045143,POINT (120.484413 30.045143)
1285,灵霄塔,嵊马线,舟山市,嵊泗县,122.447433,30.719809,POINT (122.447433 30.719809)
1286,伤雕小息,小梅山内,舟山市,嵊泗县,122.075897,30.594458,POINT (122.075897 30.594458)
1288,卧佛山,马岱村,舟山市,定海区,122.088936,30.105171,POINT (122.088936 30.105171)
1290,未来寂照禅寺,,舟山市,定海区,122.089523,30.106211,POINT (122.089523 30.106211)
1309,听潮石,梅芩路115号普陀山,舟山市,普陀区,122.393166,30.000076,POINT (122.393166 30.000076)
1311,梅雨瀑,雁荡山内,温州市,乐清市,121.020645,28.341682,POINT (121.020645 28.341682)
1312,鸣玉溪,雁荡山白芙线旁雁荡山国家森林公园灵峰景区内,温州市,乐清市,121.102875,28.368105,POINT (121.102875 28.368105)
1316,仙峡漂流,仙溪镇北阁,温州市,乐清市,121.065025,28.416435,POINT (121.065025 28.416435)
1322,上帝公宫,车站路85附近,温州市,洞头区,121.158417,27.83812,POINT (121.158417 27.83812)
1324,听诗叟,学士路附近,温州市,乐清市,121.107399,28.368368,POINT (121.107399 28.368368)
1325,顺德古寺,虹三线附近,温州市,乐清市,120.967712,28.218784,POINT (120.967712 28.218784)
1334,百福楼,双长桥往北,嘉兴市,海宁市,120.716087,30.516586,POINT (120.716087 30.516586)
1561,通济桥,姚江之上,宁波市,余姚市,121.157486,30.046955,POINT (121.157486 30.046955)
1574,垂云湖,瑶琳东琳村垂云通天河内,杭州市,桐庐县,119.532509,29.925194,POINT (119.532509 29.925194)
1575,三宝宫,瑶琳路28附近,杭州市,桐庐县,119.533524,29.888044,POINT (119.533524 29.888044)
1592,东亭庙,,宁波市,鄞州区,121.699631,29.825806,POINT (121.699631 29.825806)
1633,蛇山,,台州市,玉环市,121.347984,28.095472,POINT (121.347984 28.095472)
1755,钱山漾遗址,唐南公路,湖州市,吴兴区,120.136917,30.837236,POINT (120.136917 30.837236)
1793,雍睦亭,,金华市,兰溪市,119.540726,29.209522,POINT (119.540726 29.209522)
1818,贺埠庙,,绍兴市,上虞区,120.789963,30.087442,POINT (120.789963 30.087442)
1858,月梅亭,605乡道,宁波市,象山县,121.857773,29.548658,POINT (121.857773 29.548658)
1859,五峄禅寺,,宁波市,象山县,121.717224,29.481163,POINT (121.717224 29.481163)
1919,土地祠,洪魏路,宁波市,慈溪市,121.423569,30.086447,POINT (121.423569 30.086447)
1921,彩虹坊,彩虹北路127号,宁波市,鄞州区,121.569756,29.867064,POINT (121.569756 29.867064)
1922,万圣寺,,宁波市,奉化区,121.39875,29.718779,POINT (121.39875 29.718779)
1926,林驸马宅,顾家巷,宁波市,江北区,121.446861,29.987238,POINT (121.446861 29.987238)
2011,茅塘景区,,杭州市,余杭区,119.719727,30.420378,POINT (119.719727 30.420378)
2083,河坊街景区,河坊街,杭州市,上城区,120.171188,30.240122,POINT (120.171188 30.240122)
2156,汤寿潜纪念碑,白曹线,杭州市,萧山区,120.287491,30.008268,POINT (120.287491 30.008268)
2159,四井亭,虎跑路47附近,杭州市,西湖区,120.135956,30.215628,POINT (120.135956 30.215628)
2160,月波亭,灵隐路附近,杭州市,西湖区,120.106621,30.244843,POINT (120.106621 30.244843)
2162,马塍艺花,文三路59号,杭州市,西湖区,120.147217,30.27766,POINT (120.147217 30.27766)
2164,江桥暮雨,大兜路附近,杭州市,拱墅区,120.147743,30.296009,POINT (120.147743 30.296009)
2170,先祖罹难纪念碑,振兴西路,台州市,温岭市,121.367233,28.447401,POINT (121.367233 28.447401)
2171,温岭市城北街道石粘洞福宫,联民西路71号,台州市,温岭市,121.37513,28.442986,POINT (121.37513 28.442986)
2175,温岭西山金将军殿,潘郎下街,台州市,温岭市,121.301224,28.468212,POINT (121.301224 28.468212)
2186,三官堂,,台州市,温岭市,121.515427,28.429783,POINT (121.515427 28.429783)
2209,天波府,大溪镇环城北路,台州市,温岭市,121.284355,28.465244,POINT (121.284355 28.465244)
2210,禹王宫,大溪镇806县道,台州市,温岭市,121.293785,28.450338,POINT (121.293785 28.450338)
2257,九龙山(竹盖线),竹盖线,台州市,温岭市,121.254723,28.338591,POINT (121.254723 28.338591)
2262,军事秘密指挥机构004工程遗址,雷公山隧道,台州市,温岭市,121.61747,28.260025,POINT (121.61747 28.260025)
2275,荣盛亭,坦龙线,台州市,温岭市,121.537788,28.47403,POINT (121.537788 28.47403)
2276,玄真洞,松门镇远景村,台州市,温岭市,121.604233,28.354305,POINT (121.604233 28.354305)
2277,八仙岩,长屿镇温岭长屿硐天,台州市,温岭市,121.449425,28.431984,POINT (121.449425 28.431984)
2296,千年曙光园,八一省道,台州市,温岭市,121.617073,28.256992,POINT (121.617073 28.256992)
2298,北山厅,万昌西路附近,台州市,温岭市,121.360085,28.37648,POINT (121.360085 28.37648)
2305,禹王殿,车石隧道,台州市,温岭市,121.61779,28.270136,POINT (121.61779 28.270136)
2316,双西亭,状响线,温州市,龙湾区,120.738449,27.941063,POINT (120.738449 27.941063)
2318,乌仙宫,马分线,温州市,苍南县,120.312271,27.404533,POINT (120.312271 27.404533)
2336,普福禅寺,,台州市,温岭市,121.550583,28.480347,POINT (121.550583 28.480347)
2337,敖岩神天寺,,台州市,温岭市,121.351479,28.51293,POINT (121.351479 28.51293)
2346,尚书庙,,台州市,温岭市,121.478149,28.390247,POINT (121.478149 28.390247)
2383,新关庙,前洋村,台州市,温岭市,121.339928,28.413586,POINT (121.339928 28.413586)
2384,心安禅寺,泽国镇章袁村,台州市,温岭市,121.360611,28.480057,POINT (121.360611 28.480057)
2415,龙泉寺,,宁波市,奉化区,121.362511,29.689077,POINT (121.362511 29.689077)
2427,北坑景区,,温州市,永嘉县,120.836914,28.323685,POINT (120.836914 28.323685)
2451,觉华禅寺,,湖州市,德清县,120.216209,30.584875,POINT (120.216209 30.584875)
2470,翠迷廊,,杭州市,西湖区,120.132416,30.243793,POINT (120.132416 30.243793)
4555,独瓦亭(平川路),古镇西塘西线入口处,嘉兴市,嘉善县,120.892097,30.940046,POINT (120.892097 30.940046)
5118,迎秀桥,南苑路258号西塘古镇景区,嘉兴市,嘉善县,120.887428,30.94449,POINT (120.887428 30.94449)
5120,卧龙桥,南苑路258号西塘古镇景区,嘉兴市,嘉善县,120.895081,30.948338,POINT (120.895081 30.948338)
5122,里仁桥,南苑路258号西塘古镇内,嘉兴市,嘉善县,120.898079,30.947412,POINT (120.898079 30.947412)
5123,安济桥,南苑路258号西塘古镇景区,嘉兴市,嘉善县,120.888359,30.939848,POINT (120.888359 30.939848)
5124,银锭桥,祥符路51附近,嘉兴市,嘉善县,120.899254,30.946264,POINT (120.899254 30.946264)
5126,财神堂,松庭街27号,嘉兴市,嘉善县,120.888115,30.943338,POINT (120.888115 30.943338)
5127,吴家桥,邮电东路附近,嘉兴市,嘉善县,120.898659,30.945139,POINT (120.898659 30.945139)
5128,福源桥,祥符路31附近,嘉兴市,嘉善县,120.898918,30.947111,POINT (120.898918 30.947111)
5130,万安桥,南苑路258号西塘古镇内,嘉兴市,嘉善县,120.895073,30.946898,POINT (120.895073 30.946898)
5132,刘园民间艺术收藏会所,西塘镇北栅街44号(老品芳旁),嘉兴市,嘉善县,120.894951,30.94663,POINT (120.894951 30.94663)
5133,安泰桥,南苑路258号西塘古镇景区,嘉兴市,嘉善县,120.895287,30.94685,POINT (120.895287 30.94685)
5136,嘉善大云温泉旅游度假区,大云镇东部,嘉兴市,嘉善县,120.987289,30.780689,POINT (120.987289 30.780689)
5137,汇秀桥,南苑路258号西塘古镇内,嘉兴市,嘉善县,120.888062,30.941668,POINT (120.888062 30.941668)
5143,思贤塔,思贤商贸中心,嘉兴市,嘉善县,120.922173,30.841454,POINT (120.922173 30.841454)
5154,含秀桥,西塘镇南苑路258号西塘古镇景区,嘉兴市,嘉善县,120.887962,30.943583,POINT (120.887962 30.943583)
5155,安顺桥,西塘镇南苑路258号西塘古镇景区,嘉兴市,嘉善县,120.888062,30.939787,POINT (120.888062 30.939787)
5156,香槐堂,塔湾街47号,嘉兴市,嘉善县,120.889778,30.945332,POINT (120.889778 30.945332)
5158,汾湖,国道路2025号汾湖风景区附近,嘉兴市,嘉善县,120.81221,30.996202,POINT (120.81221 30.996202)
5160,揽秀桥,南苑路288号西塘古镇景区,嘉兴市,嘉善县,120.886932,30.940245,POINT (120.886932 30.940245)
5161,余庆堂,南苑路258号西塘古镇景区,嘉兴市,嘉善县,120.896805,30.944929,POINT (120.896805 30.944929)
5167,西街,南苑路258号西塘古镇景区,嘉兴市,嘉善县,120.895164,30.945194,POINT (120.895164 30.945194)
5168,余十眉故居,南苑路258号西塘古镇景区,嘉兴市,嘉善县,120.895782,30.943241,POINT (120.895782 30.943241)
5169,悦秀桥,南苑路258号西塘古镇内,嘉兴市,嘉善县,120.888336,30.943886,POINT (120.888336 30.943886)
5171,西塘古镇苏家弄,南苑路258号西塘古镇景区,嘉兴市,嘉善县,120.892548,30.94385,POINT (120.892548 30.94385)
5172,苏家弄石板街,西塘古镇苏家弄,嘉兴市,嘉善县,120.892525,30.94422,POINT (120.892525 30.94422)
5173,王宅,南苑路258号西塘古镇内,嘉兴市,嘉善县,120.891403,30.944773,POINT (120.891403 30.944773)
5174,沈家厅,南苑路258号西塘古镇景区,嘉兴市,嘉善县,120.895081,30.94635,POINT (120.895081 30.94635)
5175,西塘古镇计家弄(出入口),南苑路258号,嘉兴市,嘉善县,120.894356,30.94445,POINT (120.894356 30.94445)
5178,独瓦亭,南苑路258号西塘古镇内,嘉兴市,嘉善县,120.88826,30.941544,POINT (120.88826 30.941544)
5179,袁宅,南苑路258号西塘古镇内,嘉兴市,嘉善县,120.894318,30.94397,POINT (120.894318 30.94397)
5181,环秀桥(烟雨长廊),淘泾南路7号,嘉兴市,嘉善县,120.891846,30.945074,POINT (120.891846 30.945074)
5187,嘉善绿城园林,晋阳东路775号,嘉兴市,嘉善县,120.945862,30.833281,POINT (120.945862 30.833281)
5190,圆觉胜境,圆觉路附近,嘉兴市,嘉善县,120.812561,30.973637,POINT (120.812561 30.973637)
5191,吴镇墓,花园路178号,嘉兴市,嘉善县,120.915916,30.841337,POINT (120.915916 30.841337)
5192,圆通桥,天阳路88号,嘉兴市,嘉善县,120.802986,30.894348,POINT (120.802986 30.894348)
5196,净土桥凉亭,姚庄镇姚庄大道65号,嘉兴市,嘉善县,120.961548,30.906664,POINT (120.961548 30.906664)
5198,钱能训墓,G60沪昆高速,嘉兴市,嘉善县,120.979256,30.821363,POINT (120.979256 30.821363)
5202,小横港遗址,罗星街道,嘉兴市,嘉善县,120.85611,30.790768,POINT (120.85611 30.790768)
5203,独圩遗址,城西大道,嘉兴市,嘉善县,120.865623,30.80971,POINT (120.865623 30.80971)
5205,嘉善浙北桃花岛生态旅游区,姚庄镇北鹤村村民委,嘉兴市,嘉善县,120.956604,30.94845,POINT (120.956604 30.94845)
5206,大往圩遗址,S12申嘉湖高速,嘉兴市,嘉善县,120.956451,30.928526,POINT (120.956451 30.928526)
5207,慈山,亭桥南路136号,嘉兴市,嘉善县,120.918228,30.841595,POINT (120.918228 30.841595)
5208,送子来凤桥,西塘镇南苑路258号西塘古镇景区,嘉兴市,嘉善县,120.893288,30.945623,POINT (120.893288 30.945623)
5211,汾湖风景区,国道路2025号,嘉兴市,嘉善县,120.812195,30.996193,POINT (120.812195 30.996193)
5215,民工之家,陶庄镇老街,嘉兴市,嘉善县,120.963936,30.831316,POINT (120.963936 30.831316)
5216,硕士街小洋楼,花园路附近,嘉兴市,嘉善县,120.916275,30.842619,POINT (120.916275 30.842619)
5224,王宅,西塘古镇苏家弄,嘉兴市,嘉善县,120.89257,30.943966,POINT (120.89257 30.943966)
5225,西园,西塘古镇苏家弄西塘古镇景区内,嘉兴市,嘉善县,120.892609,30.944708,POINT (120.892609 30.944708)
5230,斜塘遗风,环秀街237-239号附近,嘉兴市,嘉善县,120.887764,30.94389,POINT (120.887764 30.94389)
5236,陆家厅,西塘风景区西塘,嘉兴市,嘉善县,120.898064,30.944746,POINT (120.898064 30.944746)
5297,朝尊寺,,嘉兴市,嘉善县,120.819397,30.926273,POINT (120.819397 30.926273)
5305,白余庵,西塘风景区,嘉兴市,嘉善县,120.95105,30.892885,POINT (120.95105 30.892885)
6180,天目村(农家乐),天目山镇天目山村天目山风景区大树王景区内,杭州市,临安市,119.449585,30.311649,POINT (119.449585 30.311649)
6181,天目村(农家乐),天目山镇天目山村天目山风景区大树王景区内,杭州市,临安区,119.449585,30.311649,POINT (119.449585 30.311649)
6201,长寿门,昌化镇清凉峰镇白果村大明山风景区内,杭州市,临安市,118.986687,30.03224,POINT (118.986687 30.03224)
6202,长寿门,昌化镇清凉峰镇白果村大明山风景区内,杭州市,临安区,118.986687,30.03224,POINT (118.986687 30.03224)
6209,戊寅桥,南苑路258号西塘古镇内,嘉兴市,嘉善县,120.896042,30.946989,POINT (120.896042 30.946989)
6240,倪宅,西塘风景区西塘古镇烧香港南街(五福桥西侧),嘉兴市,嘉善县,120.897766,30.944731,POINT (120.897766 30.944731)
6247,望仙桥,西塘镇淘泾南路7号,嘉兴市,嘉善县,120.899796,30.946173,POINT (120.899796 30.946173)
6248,安善桥,南苑路258号西塘古镇内,嘉兴市,嘉善县,120.888649,30.93985,POINT (120.888649 30.93985)
6249,赵宪初故居,北栅街65号西塘古镇景区,嘉兴市,嘉善县,120.894836,30.947195,POINT (120.894836 30.947195)
6254,桐村雅居,西塘镇塔湾街40号,嘉兴市,嘉善县,120.889908,30.945564,POINT (120.889908 30.945564)
6255,怪宅,下西街47-12西塘平川客栈附近,嘉兴市,嘉善县,120.895226,30.944954,POINT (120.895226 30.944954)
6256,环秀亭,南苑路258号西塘古镇景区,嘉兴市,嘉善县,120.891678,30.945015,POINT (120.891678 30.945015)
6258,水阳楼,邮电东路37-41西塘美人客栈附近,嘉兴市,嘉善县,120.897102,30.944944,POINT (120.897102 30.944944)
6261,坟浜弄,南苑路258号附近,嘉兴市,嘉善县,120.889641,30.93918,POINT (120.889641 30.93918)
6262,礼耕堂,西塘镇淘泾南路7号,嘉兴市,嘉善县,120.892044,30.944817,POINT (120.892044 30.944817)
6263,薛宅,西塘镇南苑路258号西塘古镇景区,嘉兴市,嘉善县,120.893555,30.945185,POINT (120.893555 30.945185)
6264,烧香港,西塘镇上西街119号,嘉兴市,嘉善县,120.895988,30.945173,POINT (120.895988 30.945173)
6265,烧香巷,西塘镇南苑路258号西塘古镇景区内,嘉兴市,嘉善县,120.897064,30.944426,POINT (120.897064 30.944426)
6266,永宁桥,西塘镇南苑路258号西塘古镇景区内,嘉兴市,嘉善县,120.895241,30.945395,POINT (120.895241 30.945395)
6267,徐宅,西塘镇三埭33,嘉兴市,嘉善县,120.897713,30.947168,POINT (120.897713 30.947168)
6268,古戏台,南苑路258号西塘古镇内,嘉兴市,嘉善县,120.888062,30.944464,POINT (120.888062 30.944464)
6269,陆坟银杏,邮电东路247附近,嘉兴市,嘉善县,120.89801,30.94388,POINT (120.89801 30.94388)
6272,环秀桥,南苑路258号西塘古镇内,嘉兴市,嘉善县,120.891754,30.945082,POINT (120.891754 30.945082)
6648,无他亭,102省道附近,杭州市,临安市,119.072876,30.153841,POINT (119.072876 30.153841)
6649,无他亭,102省道附近,杭州市,临安区,119.072876,30.153841,POINT (119.072876 30.153841)
6956,墨湖,学府街,杭州市,江干区,120.388519,30.310211,POINT (120.388519 30.310211)
7390,浮雕,风情大道2758号浙江湘湖旅游度假区内,杭州市,萧山区,120.220863,30.135731,POINT (120.220863 30.135731)
7554,清虚楼,灵山线,杭州市,西湖区,120.035149,30.119419,POINT (120.035149 30.119419)
7595,石刻,龙井路1号杭州西湖风景名胜区内,杭州市,西湖区,120.133942,30.249685,POINT (120.133942 30.249685)
7597,灵隐路10号别墅,灵隐路10号,杭州市,西湖区,120.126511,30.251841,POINT (120.126511 30.251841)
7600,聚芳亭,龙井路1号杭州西湖风景名胜区内,杭州市,西湖区,120.148567,30.230354,POINT (120.148567 30.230354)
7604,梅冈园,保俶路109附近,杭州市,西湖区,120.147552,30.26581,POINT (120.147552 30.26581)
7650,刘海戏蟾,禧园大舞台附近,杭州市,西湖区,120.139183,30.262064,POINT (120.139183 30.262064)
7685,弘一精舍,虎跑路,杭州市,西湖区,120.135658,30.212517,POINT (120.135658 30.212517)
8048,掬秀亭,虎山路虎山公园内,杭州市,拱墅区,120.203117,30.360168,POINT (120.203117 30.360168)
8054,怡心苑,广济路38附近,杭州市,拱墅区,120.190666,30.352388,POINT (120.190666 30.352388)
8090,杭州幼儿师范学院建筑群,文二路125号,杭州市,西湖区,120.13932,30.28286,POINT (120.13932 30.28286)
9547,洋山石龙景区-综合通信塔,小洋山洋山石龙景区内,舟山市,嵊泗县,122.062057,30.632496,POINT (122.062057 30.632496)
9548,独占鳌头,小洋山洋山石龙景区内,舟山市,嵊泗县,122.073776,30.644306,POINT (122.073776 30.644306)
9549,元宝石,小洋山洋山石龙景区内,舟山市,嵊泗县,122.067482,30.640318,POINT (122.067482 30.640318)
9550,神龟望海,小洋山洋山石龙景区内,舟山市,嵊泗县,122.066948,30.640215,POINT (122.066948 30.640215)
9551,巨鲸出海,小洋山洋山石龙景区内,舟山市,嵊泗县,122.06134,30.637945,POINT (122.06134 30.637945)
9552,天梯,小洋山洋山石龙景区内,舟山市,嵊泗县,122.067345,30.640059,POINT (122.067345 30.640059)
9553,陵塔,小洋山洋山石龙景区内,舟山市,嵊泗县,122.067276,30.642839,POINT (122.067276 30.642839)
9554,祈福池,小洋山洋山石龙景区内,舟山市,嵊泗县,122.065956,30.639893,POINT (122.065956 30.639893)
9555,洋山石龙景区-观景平台,小洋山洋山石龙景区内,舟山市,嵊泗县,122.067009,30.640341,POINT (122.067009 30.640341)
9556,鹰击长空,小洋山洋山石龙景区内,舟山市,嵊泗县,122.062149,30.635132,POINT (122.062149 30.635132)
9557,观音石像,小洋山洋山石龙景区内,舟山市,嵊泗县,122.065521,30.64035,POINT (122.065521 30.64035)
9558,龟蛇听经,小洋山洋山石龙景区内,舟山市,嵊泗县,122.061607,30.638353,POINT (122.061607 30.638353)
9560,石猿,小洋山洋山石龙景区内,舟山市,嵊泗县,122.062988,30.639675,POINT (122.062988 30.639675)
9561,观海亭,小洋山洋山石龙景区内,舟山市,嵊泗县,122.068871,30.641129,POINT (122.068871 30.641129)
9562,石驼问天,小洋山洋山石龙景区内,舟山市,嵊泗县,122.066422,30.640499,POINT (122.066422 30.640499)
9563,洋山赋,小洋山洋山石龙景区内,舟山市,嵊泗县,122.063789,30.640017,POINT (122.063789 30.640017)
9564,观桥亭,小洋山洋山石龙景区内,舟山市,嵊泗县,122.063263,30.639734,POINT (122.063263 30.639734)
9565,倚剑,小洋山洋山石龙景区内,舟山市,嵊泗县,122.062012,30.635408,POINT (122.062012 30.635408)
9566,同心石,小洋山洋山石龙景区内,舟山市,嵊泗县,122.071472,30.64267,POINT (122.071472 30.64267)
9567,观港亭,小洋山洋山石龙景区内,舟山市,嵊泗县,122.061234,30.638596,POINT (122.061234 30.638596)
9568,小石龙,小洋山洋山石龙景区内,舟山市,嵊泗县,122.061928,30.638584,POINT (122.061928 30.638584)
9569,老人与海,小洋山洋山石龙景区内,舟山市,嵊泗县,122.071129,30.641802,POINT (122.071129 30.641802)
9570,神犬护岛,小洋山洋山石龙景区内,舟山市,嵊泗县,122.06189,30.632229,POINT (122.06189 30.632229)
9571,飞来石,小洋山洋山石龙景区内,舟山市,嵊泗县,122.062263,30.6388,POINT (122.062263 30.6388)
9573,石龙奇观,五龙乡五龙乡田岙村,舟山市,嵊泗县,122.067001,30.639086,POINT (122.067001 30.639086)
9574,洋山深水港观光游览区,同欣一路1号,舟山市,嵊泗县,122.06723,30.63665,POINT (122.06723 30.63665)
9575,洋山风景区,东海大道,舟山市,嵊泗县,122.105705,30.617691,POINT (122.105705 30.617691)
9577,洋山石龙景区,洋山深水港附近,舟山市,嵊泗县,122.065262,30.63974,POINT (122.065262 30.63974)
10228,藏军洞,龙岗镇大峡谷村剑门关景区内,杭州市,临安市,119.085457,30.24507,POINT (119.085457 30.24507)
10229,藏军洞,龙岗镇大峡谷村剑门关景区内,杭州市,临安区,119.085457,30.24507,POINT (119.085457 30.24507)
10945,牛头山水库,,台州市,临海市,121.272263,28.847069,POINT (121.272263 28.847069)
10952,九龙殿,小杜线,台州市,临海市,121.59198,28.75308,POINT (121.59198 28.75308)
10954,上马峙殿,小杜线,台州市,临海市,121.58551,28.764849,POINT (121.58551 28.764849)
10955,江南情人谷,尤溪镇,台州市,临海市,121.061623,28.725355,POINT (121.061623 28.725355)
10962,迎倦坊,紫阳古街387附近,台州市,临海市,121.116447,28.845394,POINT (121.116447 28.845394)
10975,临海市非物质文化遗产古城展示馆,江滨东路51号附近,台州市,临海市,121.131897,28.836651,POINT (121.131897 28.836651)
10976,灵云寺,225省道附近,台州市,临海市,121.471832,28.794888,POINT (121.471832 28.794888)
10977,宝灵寺,江南大道2号附近,台州市,临海市,121.123238,28.83285,POINT (121.123238 28.83285)
10978,十伞巷,紫阳古街65附近,台州市,临海市,121.116707,28.839308,POINT (121.116707 28.839308)
10981,定业寺,,台州市,临海市,121.10537,28.768225,POINT (121.10537 28.768225)
10982,龙潭寺,,台州市,临海市,121.184143,28.788309,POINT (121.184143 28.788309)
10988,东岳宫(中共杜桥镇大汾办事处委员会北),,台州市,临海市,121.478264,28.742657,POINT (121.478264 28.742657)
10993,紫阳故里,文化路与广文路交叉口附近,台州市,临海市,121.116493,28.848486,POINT (121.116493 28.848486)
10996,望天台,广文路146号台州学院第一校区,台州市,临海市,121.111328,28.849852,POINT (121.111328 28.849852)
10998,崇和门,回浦路,台州市,临海市,121.123581,28.845642,POINT (121.123581 28.845642)
10999,清河坊,回浦路127号附近,台州市,临海市,121.116737,28.844048,POINT (121.116737 28.844048)
11000,太平天国台门,回浦路96号,台州市,临海市,121.11731,28.845428,POINT (121.11731 28.845428)
11003,陡门头,杜桥镇小杜线附近,台州市,临海市,121.53511,28.762856,POINT (121.53511 28.762856)
11006,郑广文纪念馆与八仙岩摩崖,望天台41号,台州市,临海市,121.114166,28.850523,POINT (121.114166 28.850523)
11007,台州府城墙大桥路,大桥路2号,台州市,临海市,121.123367,28.837942,POINT (121.123367 28.837942)
11008,杨哲商烈士故居,广文路4号,台州市,临海市,121.11985,28.849295,POINT (121.11985 28.849295)
11010,府城墙(江滨西路店),紫阳街7-11号(天宁公寓西南),台州市,临海市,121.111748,28.84734,POINT (121.111748 28.84734)
11013,浙江临海国家地质公园(小杜线),小杜线附近,台州市,临海市,121.581802,28.769991,POINT (121.581802 28.769991)
11014,南明洞,上林村,台州市,临海市,121.535095,28.763151,POINT (121.535095 28.763151)
11017,东岳宫(临海市社桥镇大汾办事处南),汾东村附近,台州市,临海市,121.478256,28.742645,POINT (121.478256 28.742645)
11018,王福堂,杜桥镇上墩头村,台州市,临海市,121.498886,28.734369,POINT (121.498886 28.734369)
11021,括苍山,张家渡镇,台州市,临海市,120.926369,28.807005,POINT (120.926369 28.807005)
11026,王氏宗祠,75省道,台州市,临海市,121.412819,28.77899,POINT (121.412819 28.77899)
11032,东湖,泉井洋路附近,台州市,临海市,121.124077,28.84857,POINT (121.124077 28.84857)
11034,望江门,观澜路255号,台州市,临海市,121.111595,28.842901,POINT (121.111595 28.842901)
11040,羊岩山,大青线,台州市,临海市,121.116402,28.976974,POINT (121.116402 28.976974)
11042,怀仁亭,大青线,台州市,临海市,121.135025,28.973711,POINT (121.135025 28.973711)
11045,梅园,城北路,台州市,临海市,121.111641,28.84746,POINT (121.111641 28.84746)
11051,万善堂,括苍镇括苍路79号,台州市,临海市,120.970917,28.848372,POINT (120.970917 28.848372)
11054,城隍山,望天台城隍庙,台州市,临海市,121.114517,28.851128,POINT (121.114517 28.851128)
11055,依水山庄,东郭巷73号,台州市,临海市,121.124786,28.846355,POINT (121.124786 28.846355)
11058,雄镇东南,东湖路与北山路交叉口,台州市,临海市,121.123062,28.852135,POINT (121.123062 28.852135)
11064,护龙殿,文化路36号附近,台州市,临海市,121.59864,28.748877,POINT (121.59864 28.748877)
11065,划岩山,头陀镇,台州市,临海市,121.114304,28.690374,POINT (121.114304 28.690374)
11066,龙潭亭,下双线,台州市,临海市,121.052948,28.689915,POINT (121.052948 28.689915)
11072,富渖关帝殿,杜桥镇新兴路,台州市,临海市,121.502113,28.748518,POINT (121.502113 28.748518)
11074,溪口窑址群,75省道,台州市,临海市,121.423431,28.7796,POINT (121.423431 28.7796)
11075,武圣殿(小峙路),小峙路附近,台州市,临海市,121.59124,28.827951,POINT (121.59124 28.827951)
11076,清静院,杜川路,台州市,临海市,121.494843,28.770761,POINT (121.494843 28.770761)
11077,庆善堂,杜桥镇225省道,台州市,临海市,121.47641,28.750252,POINT (121.47641 28.750252)
11078,后乐祠,马上线,台州市,临海市,121.31958,28.713142,POINT (121.31958 28.713142)
11080,临海大火山,大堪头村,台州市,临海市,121.615623,28.784851,POINT (121.615623 28.784851)
11082,真如堂,中央路附近,台州市,临海市,121.346321,28.720161,POINT (121.346321 28.720161)
11085,马头山胜景,马头山村,台州市,临海市,121.244827,28.747818,POINT (121.244827 28.747818)
11086,涟波亭,杜桥镇沿河路,台州市,临海市,121.467842,28.760965,POINT (121.467842 28.760965)
11089,龙珠华光堂,雪岭特长隧道,台州市,临海市,121.182419,28.726383,POINT (121.182419 28.726383)
11090,湖田三角塘路廊,杜桥镇沿河路,台州市,临海市,121.476044,28.76302,POINT (121.476044 28.76302)
11092,董氏宗祠,杜桥镇S75,台州市,临海市,121.471954,28.781675,POINT (121.471954 28.781675)
11094,兴善,紫阳街7-11号,台州市,临海市,121.117188,28.838261,POINT (121.117188 28.838261)
11098,下童祠堂,75省道,台州市,临海市,121.434998,28.82406,POINT (121.434998 28.82406)
11101,涌泉窑址群,83省道,台州市,临海市,121.303345,28.759232,POINT (121.303345 28.759232)
11103,桃渚城抗倭遗址,东洋大道,台州市,临海市,121.572304,28.816084,POINT (121.572304 28.816084)
11104,东洋白鹤殿,小杜线,台州市,临海市,121.575974,28.825598,POINT (121.575974 28.825598)
11105,福寿堂,83省道附近,台州市,临海市,121.30307,28.75556,POINT (121.30307 28.75556)
11108,牌门殿,九曲岭隧道,台州市,临海市,121.356964,28.772488,POINT (121.356964 28.772488)
11111,包公殿,小义线附近,台州市,临海市,121.436989,28.845198,POINT (121.436989 28.845198)
11116,大雄宝殿,杜桥镇环城北路,台州市,临海市,121.497948,28.775002,POINT (121.497948 28.775002)
11117,小资农庄,小义线附近,台州市,临海市,121.433105,28.860214,POINT (121.433105 28.860214)
11118,九华洞,小杜线,台州市,临海市,121.569832,28.739983,POINT (121.569832 28.739983)
11120,府城皇殿,75省道,台州市,临海市,121.433853,28.789696,POINT (121.433853 28.789696)
11121,牛头山风景区,邵家渡,台州市,临海市,121.274834,28.834139,POINT (121.274834 28.834139)
11130,江南大峡谷,尤溪镇,台州市,临海市,121.09066,28.741741,POINT (121.09066 28.741741)
11131,武圣殿,杜桥镇建电路(川南卫生院北),台州市,临海市,121.511871,28.725187,POINT (121.511871 28.725187)
11134,镇福殿,黄四线,台州市,临海市,121.56414,28.843918,POINT (121.56414 28.843918)
11139,宫头庄,G15沈海高速,台州市,临海市,121.224861,28.905748,POINT (121.224861 28.905748)
11140,台沟风景区,张米线,台州市,临海市,120.943008,28.775309,POINT (120.943008 28.775309)
11141,回隆殿,四上线,台州市,临海市,121.62307,28.767389,POINT (121.62307 28.767389)
11143,南明洞风景区,杜桥镇小杜线,台州市,临海市,121.533798,28.762804,POINT (121.533798 28.762804)
11146,龙珠宫,S28台金高速,台州市,临海市,121.191864,28.753952,POINT (121.191864 28.753952)
11147,清潭头村风景区,G15沈海高速附近,台州市,临海市,121.235893,28.757706,POINT (121.235893 28.757706)
11148,西方三圣殿,G15沈海高速,台州市,临海市,121.22438,28.764824,POINT (121.22438 28.764824)
11150,羊岩山茶文化园景区,临海河头镇,台州市,临海市,121.145416,28.975618,POINT (121.145416 28.975618)
11151,羊岩之巅,大青线,台州市,临海市,121.15744,28.978962,POINT (121.15744 28.978962)
11153,新塘殿,小杜线,台州市,临海市,121.577774,28.802395,POINT (121.577774 28.802395)
11154,永福殿,小杜线,台州市,临海市,121.578514,28.790159,POINT (121.578514 28.790159)
11155,三台书院,里洋路附近,台州市,临海市,121.156296,28.823393,POINT (121.156296 28.823393)
11156,朝天门,西门古街,台州市,临海市,121.110817,28.845993,POINT (121.110817 28.845993)
11159,白塔桥(回浦路),回浦路127号附近,台州市,临海市,121.116623,28.844938,POINT (121.116623 28.844938)
11163,桃江十三渚,桃渚镇,台州市,临海市,121.551636,28.819342,POINT (121.551636 28.819342)
11164,护国殿,三峰路412号,台州市,临海市,121.151543,28.876261,POINT (121.151543 28.876261)
11170,章敦茂染坊,西门街267号,台州市,临海市,121.11174,28.845747,POINT (121.11174 28.845747)
11175,台州府城墙遗址,东湖路72号,台州市,临海市,121.122597,28.851751,POINT (121.122597 28.851751)
11186,临海古城墙,远洲路2号,台州市,临海市,121.123055,28.851315,POINT (121.123055 28.851315)
11188,接引寺,,台州市,临海市,121.210609,28.756897,POINT (121.210609 28.756897)
11189,东岳殿,036乡道附近,台州市,临海市,121.095222,28.730827,POINT (121.095222 28.730827)
11190,三保寺,小杜线附近,台州市,临海市,121.546143,28.762617,POINT (121.546143 28.762617)
11191,仙山禅寺,汛桥镇西山村,台州市,临海市,121.177132,28.763367,POINT (121.177132 28.763367)
11192,山皇殿,,台州市,临海市,121.571243,28.743196,POINT (121.571243 28.743196)
11193,中国二十一世纪曙光碑,括苍山,台州市,临海市,120.926163,28.806761,POINT (120.926163 28.806761)
11198,桃渚珊瑚岩群,大堪头村,台州市,临海市,121.615669,28.784519,POINT (121.615669 28.784519)
11199,苏州堂,,台州市,临海市,120.963463,28.98263,POINT (120.963463 28.98263)
11200,石柱山,桃渚镇桃渚城东南约15公里,台州市,临海市,121.545532,28.806004,POINT (121.545532 28.806004)
11202,永宁庙,杜桥镇环城南路61号附近,台州市,临海市,121.502907,28.761374,POINT (121.502907 28.761374)
11203,赵爷殿,009乡道附近,台州市,临海市,121.268379,28.944086,POINT (121.268379 28.944086)
11205,庄头宫,,台州市,临海市,121.224388,28.905725,POINT (121.224388 28.905725)
11208,九畹兰庄,特产场路(近兰文化博物馆),台州市,临海市,121.107384,28.825457,POINT (121.107384 28.825457)
11213,清隐寺,,台州市,临海市,121.251793,28.714718,POINT (121.251793 28.714718)
11215,定光净寺,035乡道附近,台州市,临海市,121.116562,28.789865,POINT (121.116562 28.789865)
11216,安心寺,,台州市,临海市,121.477592,28.737789,POINT (121.477592 28.737789)
11217,月照寺,桃渚镇四岔村,台州市,临海市,121.589661,28.814314,POINT (121.589661 28.814314)
11218,兴福庙,026乡道附近,台州市,临海市,121.322578,28.766035,POINT (121.322578 28.766035)
11220,老龙头生态旅游风景区,,台州市,临海市,121.028809,28.701305,POINT (121.028809 28.701305)
11221,东湖(北门),东湖路38附近,台州市,临海市,121.123665,28.850861,POINT (121.123665 28.850861)
11222,桃渚古城,桃渚镇城里村,台州市,临海市,121.539093,28.82593,POINT (121.539093 28.82593)
11223,桃渚古城,桃渚镇城里村,台州市,临海市,121.536354,28.826571,POINT (121.536354 28.826571)
11224,长甸寺,S28台金高速附近,台州市,临海市,121.264488,28.736498,POINT (121.264488 28.736498)
11232,栖霞禅寺,311县道,绍兴市,诸暨市,120.334831,29.445288,POINT (120.334831 29.445288)
11234,青山净寺,大松路附近,绍兴市,诸暨市,120.172821,29.696714,POINT (120.172821 29.696714)
11236,五泄奇幻漂流,马剑镇石门水库,绍兴市,诸暨市,120.025101,29.728697,POINT (120.025101 29.728697)
11320,诸暨市五泄国家森林公园,五泄风景区,绍兴市,诸暨市,120.054138,29.705645,POINT (120.054138 29.705645)
11335,四眼井,苎罗东路2号西施故里内,绍兴市,诸暨市,120.238174,29.699251,POINT (120.238174 29.699251)
11337,庙前广场,苎罗东路2号西施故里内,绍兴市,诸暨市,120.2397,29.697611,POINT (120.2397 29.697611)
11338,周恩来生平资料陈列室,市南路72附近,绍兴市,诸暨市,120.228622,29.697979,POINT (120.228622 29.697979)
11340,长春古道,020乡道附近,绍兴市,诸暨市,120.072777,29.777016,POINT (120.072777 29.777016)
11341,周恩来邓颖超纪念馆,市南路72附近,绍兴市,诸暨市,120.228622,29.697979,POINT (120.228622 29.697979)
11349,流花亭,五泄镇五泄风景区内,绍兴市,诸暨市,120.051025,29.727375,POINT (120.051025 29.727375)
11350,上山乌龟,五泄镇五泄风景区内,绍兴市,诸暨市,120.043938,29.703678,POINT (120.043938 29.703678)
11351,三台塔,五泄镇五泄风景区内,绍兴市,诸暨市,120.045891,29.74567,POINT (120.045891 29.74567)
11352,伽蓝殿,五泄镇五泄风景区五洩禅寺内,绍兴市,诸暨市,120.052101,29.731876,POINT (120.052101 29.731876)
11353,大雄宝殿,五泄镇五泄风景区五洩禅寺内,绍兴市,诸暨市,120.051826,29.732031,POINT (120.051826 29.732031)
11354,群蛙争鸣,牌头镇斗岩风景区,绍兴市,诸暨市,120.137955,29.621517,POINT (120.137955 29.621517)
11357,第五泄,五泄镇五泄风景区内,绍兴市,诸暨市,120.051628,29.735149,POINT (120.051628 29.735149)
11358,第一泄,五泄镇五泄风景区内,绍兴市,诸暨市,120.051552,29.736254,POINT (120.051552 29.736254)
11359,第二泄,五泄镇五泄风景区内,绍兴市,诸暨市,120.051804,29.736216,POINT (120.051804 29.736216)
11360,观音像,牌头镇斗岩风景区,绍兴市,诸暨市,120.138016,29.62184,POINT (120.138016 29.62184)
11370,建辉村许文强故居,建辉村,绍兴市,诸暨市,120.002106,29.687878,POINT (120.002106 29.687878)
11373,第四泄,五泄镇五泄风景区内,绍兴市,诸暨市,120.051331,29.735601,POINT (120.051331 29.735601)
11374,天然大佛,牌头镇斗岩风景区,绍兴市,诸暨市,120.137703,29.620541,POINT (120.137703 29.620541)
11375,灵默道场,五泄镇五泄风景区五洩禅寺内,绍兴市,诸暨市,120.051682,29.732359,POINT (120.051682 29.732359)
11376,桃园景区,五泄镇五泄风景区内,绍兴市,诸暨市,120.050354,29.725306,POINT (120.050354 29.725306)
11377,斗岩风景区(出口处),牌头镇,绍兴市,诸暨市,120.144402,29.616768,POINT (120.144402 29.616768)
11378,西施史料陈列馆,浣纱南路123号(西施故里旅游景区内)西施殿内,绍兴市,诸暨市,120.236435,29.698017,POINT (120.236435 29.698017)
11380,金井龙潭,牌头镇斗岩风景区,绍兴市,诸暨市,120.137985,29.62191,POINT (120.137985 29.62191)
11381,苎萝山,浣纱南路123号(西施故里旅游景区内)西施殿内,绍兴市,诸暨市,120.236351,29.69993,POINT (120.236351 29.69993)
11382,锡器,暨阳街道鸬鹚湾村9号裕昌号民间艺术馆内,绍兴市,诸暨市,120.238457,29.698576,POINT (120.238457 29.698576)
11383,刻镂瀑,五泄镇五泄风景区内,绍兴市,诸暨市,120.046532,29.738155,POINT (120.046532 29.738155)
11384,鼓楼,五泄镇五泄风景区五洩禅寺内,绍兴市,诸暨市,120.05143,29.732035,POINT (120.05143 29.732035)
11385,崇仪亭,牌头镇斗岩风景区,绍兴市,诸暨市,120.141586,29.61919,POINT (120.141586 29.61919)
11386,皇母殿,牌头镇斗岩风景区,绍兴市,诸暨市,120.139412,29.621361,POINT (120.139412 29.621361)
11387,苎萝亭,浣纱南路123号(西施故里旅游景区内)西施殿内,绍兴市,诸暨市,120.236031,29.699806,POINT (120.236031 29.699806)
11388,碑廊,浣纱南路123号(西施故里旅游景区内)西施殿内,绍兴市,诸暨市,120.235786,29.699879,POINT (120.235786 29.699879)
11389,魁星阁,苎罗东路2号西施故里范蠡祠内,绍兴市,诸暨市,120.239716,29.698725,POINT (120.239716 29.698725)
11390,四美·西施厅,苎罗东路2号西施故里中国历代名媛馆内,绍兴市,诸暨市,120.23893,29.701487,POINT (120.23893 29.701487)
11392,宫廷女性,苎罗东路2号西施故里中国历代名媛馆内,绍兴市,诸暨市,120.239098,29.701477,POINT (120.239098 29.701477)
11393,木鱼石,同山镇汤江岩内,绍兴市,诸暨市,120.104546,29.550535,POINT (120.104546 29.550535)
11394,竹艺,暨阳街道鸬鹚湾村9号裕昌号民间艺术馆内,绍兴市,诸暨市,120.238235,29.698515,POINT (120.238235 29.698515)
11395,石鼓门,同山镇汤江岩内,绍兴市,诸暨市,120.101967,29.552191,POINT (120.101967 29.552191)
11396,紫薇岭,五泄镇五泄风景区内,绍兴市,诸暨市,120.048088,29.740217,POINT (120.048088 29.740217)
11397,天下第一鼓(九天琼台),牌头镇斗岩风景区,绍兴市,诸暨市,120.138199,29.621098,POINT (120.138199 29.621098)
11399,秦淮八艳,苎罗东路2号西施故里中国历代名媛馆内,绍兴市,诸暨市,120.239243,29.701565,POINT (120.239243 29.701565)
11400,观音殿,五泄镇五泄风景区五洩禅寺内,绍兴市,诸暨市,120.051636,29.732616,POINT (120.051636 29.732616)
11401,越绣,暨阳街道鸬鹚湾村9号裕昌号民间艺术馆内,绍兴市,诸暨市,120.238373,29.698618,POINT (120.238373 29.698618)
11402,造像,暨阳街道鸬鹚湾村9号裕昌号民间艺术馆内,绍兴市,诸暨市,120.238319,29.698746,POINT (120.238319 29.698746)
11404,地藏殿,五泄镇五泄风景区五洩禅寺内,绍兴市,诸暨市,120.052254,29.732073,POINT (120.052254 29.732073)
11405,荷花池,浣纱南路123号(西施故里旅游景区内)西施殿内,绍兴市,诸暨市,120.236298,29.698441,POINT (120.236298 29.698441)
11406,八卦洞群,同山镇汤江岩内,绍兴市,诸暨市,120.103401,29.552153,POINT (120.103401 29.552153)
11409,枫叶林,五泄镇五泄风景区内,绍兴市,诸暨市,120.050087,29.738436,POINT (120.050087 29.738436)
11410,孝义桥,苎罗东路2号西施故里内,绍兴市,诸暨市,120.238594,29.69949,POINT (120.238594 29.69949)
11411,琴台,浣纱南路123号(西施故里旅游景区内)西施殿内,绍兴市,诸暨市,120.236588,29.699247,POINT (120.236588 29.699247)
11412,石笋,同山镇汤江岩内,绍兴市,诸暨市,120.103683,29.552219,POINT (120.103683 29.552219)
11413,西源峡谷,五泄镇五泄风景区内,绍兴市,诸暨市,120.050865,29.730337,POINT (120.050865 29.730337)
11414,南天门,同山镇汤江岩内,绍兴市,诸暨市,120.103828,29.55085,POINT (120.103828 29.55085)
11415,猿公问天,同山镇汤江岩内,绍兴市,诸暨市,120.102631,29.552391,POINT (120.102631 29.552391)
11416,四美·貂蝉王昭君厅,苎罗东路2号西施故里中国历代名媛馆内,绍兴市,诸暨市,120.239014,29.701494,POINT (120.239014 29.701494)
11417,白云亭,牌头镇斗岩风景区,绍兴市,诸暨市,120.138458,29.621643,POINT (120.138458 29.621643)
11418,古越台,浣纱南路123号(西施故里旅游景区内)西施殿内,绍兴市,诸暨市,120.236374,29.700159,POINT (120.236374 29.700159)
11419,毛龙潭,五泄镇五泄风景区内,绍兴市,诸暨市,120.046852,29.730686,POINT (120.046852 29.730686)
11420,简介石碑,牌头镇斗岩风景区,绍兴市,诸暨市,120.142937,29.618109,POINT (120.142937 29.618109)
11421,荷花塘,苎罗东路2号西施故里内,绍兴市,诸暨市,120.238861,29.69849,POINT (120.238861 29.69849)
11422,灵龟登台,牌头镇斗岩风景区,绍兴市,诸暨市,120.13903,29.621408,POINT (120.13903 29.621408)
11423,斗岩风景区-入口处,牌头镇,绍兴市,诸暨市,120.143265,29.617949,POINT (120.143265 29.617949)
11424,三星高照,苎罗东路2号西施故里范蠡祠内,绍兴市,诸暨市,120.239586,29.698795,POINT (120.239586 29.698795)
11425,西龙潭,五泄镇五泄风景区内,绍兴市,诸暨市,120.046883,29.739992,POINT (120.046883 29.739992)
11426,千佛堂,苎罗东路2号西施故里泰山庙内,绍兴市,诸暨市,120.240807,29.698544,POINT (120.240807 29.698544)
11427,天王殿,牌头镇斗岩风景区,绍兴市,诸暨市,120.138695,29.621498,POINT (120.138695 29.621498)
11428,凉风洞,同山镇汤江岩内,绍兴市,诸暨市,120.103172,29.551897,POINT (120.103172 29.551897)
11429,龙潭庙,同山镇汤江岩内,绍兴市,诸暨市,120.104965,29.549603,POINT (120.104965 29.549603)
11430,大雄宝殿,牌头镇斗岩风景区,绍兴市,诸暨市,120.13858,29.62166,POINT (120.13858 29.62166)
11431,得奇亭,五泄镇五泄风景区内,绍兴市,诸暨市,120.048027,29.739967,POINT (120.048027 29.739967)
11432,点将台,牌头镇斗岩风景区,绍兴市,诸暨市,120.142159,29.618832,POINT (120.142159 29.618832)
11433,七星洞群,同山镇汤江岩内,绍兴市,诸暨市,120.10289,29.552498,POINT (120.10289 29.552498)
11434,巨鳄问天,牌头镇斗岩风景区,绍兴市,诸暨市,120.138443,29.620897,POINT (120.138443 29.620897)
11435,达摩面壁,同山镇汤江岩内,绍兴市,诸暨市,120.103554,29.551332,POINT (120.103554 29.551332)
11437,揽翠轩,苎罗东路2号西施故里金鸡山内,绍兴市,诸暨市,120.241859,29.697659,POINT (120.241859 29.697659)
11438,千年道,同山镇汤江岩内,绍兴市,诸暨市,120.103165,29.55163,POINT (120.103165 29.55163)
11439,三圣殿,五泄镇五泄风景区五洩禅寺内,绍兴市,诸暨市,120.051987,29.732313,POINT (120.051987 29.732313)
11440,五泄湖,五泄镇五泄风景区内,绍兴市,诸暨市,120.048218,29.704699,POINT (120.048218 29.704699)
11441,钟楼,五泄镇五泄风景区五洩禅寺内,绍兴市,诸暨市,120.052002,29.731756,POINT (120.052002 29.731756)
11442,一线天,牌头镇斗岩风景区,绍兴市,诸暨市,120.13929,29.621485,POINT (120.13929 29.621485)
11443,三学堂,五泄镇五泄风景区五洩禅寺内,绍兴市,诸暨市,120.051659,29.732256,POINT (120.051659 29.732256)
11445,红粉池,浣纱南路123号(西施故里旅游景区内)西施殿内,绍兴市,诸暨市,120.236443,29.700167,POINT (120.236443 29.700167)
11446,学士桥,苎罗东路2号西施故里内,绍兴市,诸暨市,120.238785,29.699478,POINT (120.238785 29.699478)
11447,西施行长廊,浣纱南路123号(西施故里旅游景区内)西施殿内,绍兴市,诸暨市,120.236313,29.699476,POINT (120.236313 29.699476)
11448,疏芦亭,苎罗东路2号西施故里内,绍兴市,诸暨市,120.237808,29.698359,POINT (120.237808 29.698359)
11449,五泄溪,五泄镇五泄风景区内,绍兴市,诸暨市,120.048225,29.720652,POINT (120.048225 29.720652)
11452,神仙洞,同山镇汤江岩内,绍兴市,诸暨市,120.103409,29.551523,POINT (120.103409 29.551523)
11454,西施殿(出口处),浣纱南路123号(西施故里旅游景区内)西施殿内,绍兴市,诸暨市,120.236595,29.698463,POINT (120.236595 29.698463)
11455,三圣殿,苎罗东路2号西施故里泰山庙内,绍兴市,诸暨市,120.24086,29.698387,POINT (120.24086 29.698387)
11456,石梯弄,同山镇汤江岩内,绍兴市,诸暨市,120.103157,29.552683,POINT (120.103157 29.552683)
11458,东岳大帝,苎罗东路2号西施故里泰山庙内,绍兴市,诸暨市,120.24041,29.698246,POINT (120.24041 29.698246)
11461,夷光阁,浣纱南路123号(西施故里旅游景区内)西施殿内,绍兴市,诸暨市,120.236702,29.699003,POINT (120.236702 29.699003)
11462,斗岩风景区,牌头镇王家宅,绍兴市,诸暨市,120.138512,29.62266,POINT (120.138512 29.62266)
11463,千柱屋,斯宅乡东白湖镇,绍兴市,诸暨市,120.451263,29.567396,POINT (120.451263 29.567396)
11466,江南闲楼,商城北路,绍兴市,诸暨市,120.137466,29.724834,POINT (120.137466 29.724834)
11467,朱学勉烈士墓,306县道,绍兴市,诸暨市,120.319336,29.808184,POINT (120.319336 29.808184)
11470,西岩风景区,枫谷线,绍兴市,诸暨市,120.46418,29.632929,POINT (120.46418 29.632929)
11473,天王殿,069乡道,绍兴市,诸暨市,120.068161,29.586758,POINT (120.068161 29.586758)
11476,张秋人烈士墓,G60沪昆高速,绍兴市,诸暨市,120.126076,29.585049,POINT (120.126076 29.585049)
11477,聚星塔,,绍兴市,诸暨市,120.248177,29.570782,POINT (120.248177 29.570782)
11481,何文庆故居,001乡道,绍兴市,诸暨市,120.476372,29.744743,POINT (120.476372 29.744743)
11483,斯宅镇,斯宅乡,绍兴市,诸暨市,120.441116,29.573996,POINT (120.441116 29.573996)
11484,东白湖,东白湖镇陈蔡水库大坝下,绍兴市,诸暨市,120.403358,29.572483,POINT (120.403358 29.572483)
11486,新云山,020乡道,绍兴市,诸暨市,120.070152,29.805319,POINT (120.070152 29.805319)
11487,藏绿古建筑群,019乡道,绍兴市,诸暨市,120.092575,29.684101,POINT (120.092575 29.684101)
11490,三叠瀑,066乡道,绍兴市,诸暨市,120.497856,29.686277,POINT (120.497856 29.686277)
11497,孟子故里,304县道,绍兴市,诸暨市,120.135674,29.77553,POINT (120.135674 29.77553)
11499,浣纱亭,暨阳街道浣纱南路122号,绍兴市,诸暨市,120.237,29.699995,POINT (120.237 29.699995)
11503,杨侯殿,03省道,绍兴市,诸暨市,120.135269,29.71179,POINT (120.135269 29.71179)
11510,赵孔飞烈士墓,柯桥街道31省道,绍兴市,诸暨市,120.18692,29.703211,POINT (120.18692 29.703211)
11511,中国历代名媛馆,苎萝东路2号,绍兴市,诸暨市,120.23909,29.701571,POINT (120.23909 29.701571)
11518,马山头,柯桥街道华海路12号,绍兴市,诸暨市,120.176682,29.708313,POINT (120.176682 29.708313)
11524,小天竺景区,枫桥镇钟瑛路38号枫桥,绍兴市,诸暨市,120.423218,29.785179,POINT (120.423218 29.785179)
11544,海越花园,市南路88号,绍兴市,诸暨市,120.228752,29.696331,POINT (120.228752 29.696331)
11546,斯宅古民居建筑群斯盛居,303县道,绍兴市,诸暨市,120.4505,29.569645,POINT (120.4505 29.569645)
11695,谢湾咏梅诗廊,蕺山街91附近,绍兴市,越城区,120.586487,30.007149,POINT (120.586487 30.007149)
11697,探花台门,肖山街,绍兴市,越城区,120.5858,30.004805,POINT (120.5858 30.004805)
11699,溯青堂,蕺山街23号,绍兴市,越城区,120.586388,30.005377,POINT (120.586388 30.005377)
11700,墨池,王羲之墨池旁边(戒珠寺旁边),绍兴市,越城区,120.586189,30.0077,POINT (120.586189 30.0077)
11701,揽月桥,东湖镇云东路东湖景区内,绍兴市,越城区,120.629402,29.99983,POINT (120.629402 29.99983)
11706,朱家台门纪事碑,鲁迅中路222号,绍兴市,越城区,120.584396,29.991747,POINT (120.584396 29.991747)
11709,万福寺,罗门畈77,绍兴市,越城区,120.59182,29.987207,POINT (120.59182 29.987207)
11714,马头墙,仓桥直街152号,绍兴市,越城区,120.577469,29.999098,POINT (120.577469 29.999098)
11715,流杯岩,府山西路465附近,绍兴市,越城区,120.569572,29.997999,POINT (120.569572 29.997999)
11716,漾月堂,府山西路465附近,绍兴市,越城区,120.569252,29.998184,POINT (120.569252 29.998184)
11717,秋园,府山西路465号,绍兴市,越城区,120.569901,29.998938,POINT (120.569901 29.998938)
11718,乌篷船码头,东成欢河沿-百草园后门,绍兴市,越城区,120.587784,30.001581,POINT (120.587784 30.001581)
11719,贺秘监祠(南门),劳动路277号,绍兴市,越城区,120.585251,30.001907,POINT (120.585251 30.001907)
11720,清园,府山西路府山小区,绍兴市,越城区,120.570389,30.002022,POINT (120.570389 30.002022)
11728,题扇桥,鲁迅中路262号,绍兴市,越城区,120.585968,29.99164,POINT (120.585968 29.99164)
11740,半江庙,绍三线,绍兴市,越城区,120.599701,30.026854,POINT (120.599701 30.026854)
11743,鲁迅祖居,鲁迅中路237号,绍兴市,越城区,120.586166,29.991949,POINT (120.586166 29.991949)
11769,四大士殿,市郊香炉峰炉峰禅寺内,绍兴市,越城区,120.607491,29.953175,POINT (120.607491 29.953175)
11770,陶园,东湖镇云东路东湖景区内,绍兴市,越城区,120.630112,29.999493,POINT (120.630112 29.999493)
11773,扬帆舫,东湖镇云东路东湖景区内,绍兴市,越城区,120.636528,29.996813,POINT (120.636528 29.996813)
11775,鉴湖遗址,跨湖桥直街附近,绍兴市,越城区,120.561638,29.995266,POINT (120.561638 29.995266)
11776,观音照壁,市郊香炉峰炉峰禅寺内,绍兴市,越城区,120.607941,29.955681,POINT (120.607941 29.955681)
11777,树下王,树下王路附近,绍兴市,越城区,120.552048,29.993856,POINT (120.552048 29.993856)
11781,禹祠,会稽山麓大禹陵景区内,绍兴市,越城区,120.61364,29.963514,POINT (120.61364 29.963514)
11782,顺冬桥,市郊香炉峰炉峰禅寺内,绍兴市,越城区,120.607674,29.953268,POINT (120.607674 29.953268)
11784,问霞阁,东湖镇云东路东湖景区内,绍兴市,越城区,120.634537,29.996761,POINT (120.634537 29.996761)
11785,市门桥,东湖镇云东路东湖景区内,绍兴市,越城区,120.630287,29.999474,POINT (120.630287 29.999474)
11786,凤仙亭,市郊香炉峰炉峰禅寺内,绍兴市,越城区,120.609367,29.947876,POINT (120.609367 29.947876)
11787,羞花落雁,东湖镇云东路东湖景区内,绍兴市,越城区,120.635162,29.997305,POINT (120.635162 29.997305)
11790,言翰书院,会稽路与杨绍线交叉路口会稽山景区内,绍兴市,越城区,120.602249,29.965261,POINT (120.602249 29.965261)
11791,三圣佛殿,市郊香炉峰炉峰禅寺内,绍兴市,越城区,120.612495,29.944613,POINT (120.612495 29.944613)
11792,仙桃洞,东湖镇云东路东湖景区内,绍兴市,越城区,120.634644,29.997553,POINT (120.634644 29.997553)
11793,慈云广被,市郊香炉峰炉峰禅寺内,绍兴市,越城区,120.612343,29.944643,POINT (120.612343 29.944643)
11794,观音宝殿,市郊香炉峰炉峰禅寺内,绍兴市,越城区,120.612213,29.944595,POINT (120.612213 29.944595)
11797,喇叭洞,东湖镇云东路东湖景区内,绍兴市,越城区,120.634903,29.997286,POINT (120.634903 29.997286)
11799,山仙上楼,东湖镇云东路东湖景区内,绍兴市,越城区,120.63623,29.997011,POINT (120.63623 29.997011)
11800,听湫亭,东湖镇云东路东湖景区内,绍兴市,越城区,120.635933,29.996786,POINT (120.635933 29.996786)
11801,明心亭,市郊香炉峰炉峰禅寺内,绍兴市,越城区,120.613045,29.947798,POINT (120.613045 29.947798)
11802,万猴山,东湖镇云东路东湖景区内,绍兴市,越城区,120.631897,29.999214,POINT (120.631897 29.999214)
11803,心经岩,市郊香炉峰炉峰禅寺内,绍兴市,越城区,120.611671,29.945019,POINT (120.611671 29.945019)
11804,霞川桥,东湖镇云东路东湖景区内,绍兴市,越城区,120.6353,29.997574,POINT (120.6353 29.997574)
11806,飞来石,市郊香炉峰炉峰禅寺内,绍兴市,越城区,120.611801,29.94495,POINT (120.611801 29.94495)
11807,南天竺,市郊香炉峰炉峰禅寺内,绍兴市,越城区,120.611214,29.945404,POINT (120.611214 29.945404)
11808,吉祥亭,市郊香炉峰炉峰禅寺内,绍兴市,越城区,120.609009,29.951706,POINT (120.609009 29.951706)
11809,东门楼,市郊香炉峰炉峰禅寺内,绍兴市,越城区,120.607925,29.955853,POINT (120.607925 29.955853)
11810,报恩堂,市郊香炉峰炉峰禅寺内,绍兴市,越城区,120.606842,29.954609,POINT (120.606842 29.954609)
11811,卧佛殿,市郊香炉峰炉峰禅寺内,绍兴市,越城区,120.607399,29.953453,POINT (120.607399 29.953453)
11812,药师殿,市郊香炉峰炉峰禅寺内,绍兴市,越城区,120.607536,29.953026,POINT (120.607536 29.953026)
11813,如意桥,市郊香炉峰炉峰禅寺内,绍兴市,越城区,120.609566,29.951054,POINT (120.609566 29.951054)
11814,鼓楼,市郊香炉峰炉峰禅寺内,绍兴市,越城区,120.607513,29.954363,POINT (120.607513 29.954363)
11815,无量殿,市郊香炉峰炉峰禅寺内,绍兴市,越城区,120.607971,29.953169,POINT (120.607971 29.953169)
11816,四面观音殿,市郊香炉峰炉峰禅寺内,绍兴市,越城区,120.610657,29.950064,POINT (120.610657 29.950064)
11817,禹陵,会稽山麓大禹陵景区内,绍兴市,越城区,120.612816,29.964191,POINT (120.612816 29.964191)
11818,饮渌亭,东湖镇云东路东湖景区内,绍兴市,越城区,120.635277,29.997423,POINT (120.635277 29.997423)
11819,华山一条道,东湖镇云东路东湖景区内,绍兴市,越城区,120.635017,29.997074,POINT (120.635017 29.997074)
11821,七佛如来塔,市郊香炉峰炉峰禅寺内,绍兴市,越城区,120.607773,29.955233,POINT (120.607773 29.955233)
11822,茶海一粟,东湖镇云东路东湖景区内,绍兴市,越城区,120.633224,29.997486,POINT (120.633224 29.997486)
11824,故亭,市郊香炉峰炉峰禅寺内,绍兴市,越城区,120.614342,29.944794,POINT (120.614342 29.944794)
11825,和舍居,市郊香炉峰炉峰禅寺内,绍兴市,越城区,120.607773,29.953691,POINT (120.607773 29.953691)
11826,佛境,市郊香炉峰炉峰禅寺内,绍兴市,越城区,120.607643,29.955606,POINT (120.607643 29.955606)
11827,静趣亭,东湖镇云东路东湖景区内,绍兴市,越城区,120.632584,29.999266,POINT (120.632584 29.999266)
11830,青翠亭,市郊香炉峰炉峰禅寺内,绍兴市,越城区,120.610359,29.945898,POINT (120.610359 29.945898)
11831,放生池,市郊香炉峰炉峰禅寺内,绍兴市,越城区,120.607262,29.955448,POINT (120.607262 29.955448)
11832,文昌阁,市郊香炉峰炉峰禅寺内,绍兴市,越城区,120.608551,29.952711,POINT (120.608551 29.952711)
11833,双余亭,市郊香炉峰炉峰禅寺内,绍兴市,越城区,120.609688,29.948935,POINT (120.609688 29.948935)
11834,妙通亭,市郊香炉峰炉峰禅寺内,绍兴市,越城区,120.609444,29.946562,POINT (120.609444 29.946562)
11835,菩提斋,市郊香炉峰炉峰禅寺内,绍兴市,越城区,120.606888,29.954218,POINT (120.606888 29.954218)
11836,丈室,市郊香炉峰炉峰禅寺内,绍兴市,越城区,120.607872,29.9541,POINT (120.607872 29.9541)
11837,陶公洞,东湖镇云东路东湖景区内,绍兴市,越城区,120.635818,29.996784,POINT (120.635818 29.996784)
11838,桂岭,东湖镇云东路东湖景区内,绍兴市,越城区,120.633514,29.998253,POINT (120.633514 29.998253)
11839,般若之门,市郊香炉峰炉峰禅寺内,绍兴市,越城区,120.608635,29.951962,POINT (120.608635 29.951962)
11840,金惠亭,市郊香炉峰炉峰禅寺内,绍兴市,越城区,120.610298,29.949654,POINT (120.610298 29.949654)
11841,陶社,东湖镇云东路东湖景区内,绍兴市,越城区,120.631592,29.999153,POINT (120.631592 29.999153)
11843,和合2舍,市郊香炉峰炉峰禅寺内,绍兴市,越城区,120.607285,29.955637,POINT (120.607285 29.955637)
11844,香积亭,东湖镇云东路东湖景区内,绍兴市,越城区,120.633675,29.998177,POINT (120.633675 29.998177)
11845,揽越亭,东湖镇云东路东湖景区内,绍兴市,越城区,120.631035,29.998932,POINT (120.631035 29.998932)
11846,聚缘轩,市郊香炉峰炉峰禅寺内,绍兴市,越城区,120.607361,29.953571,POINT (120.607361 29.953571)
11847,三门殿,市郊香炉峰炉峰禅寺内,绍兴市,越城区,120.607063,29.955002,POINT (120.607063 29.955002)
11849,钟楼,市郊香炉峰炉峰禅寺内,绍兴市,越城区,120.607124,29.954258,POINT (120.607124 29.954258)
11850,万柳桥,东湖镇云东路东湖景区内,绍兴市,越城区,120.635117,29.997757,POINT (120.635117 29.997757)
11851,墨池,东湖镇云东路东湖景区内,绍兴市,越城区,120.636299,29.996981,POINT (120.636299 29.996981)
11852,听泉谷,东湖镇云东路东湖景区内,绍兴市,越城区,120.63485,29.996916,POINT (120.63485 29.996916)
11853,思运塔,市郊香炉峰炉峰禅寺内,绍兴市,越城区,120.611008,29.945881,POINT (120.611008 29.945881)
11854,功德堂,市郊香炉峰炉峰禅寺内,绍兴市,越城区,120.60791,29.953318,POINT (120.60791 29.953318)
11855,龙池,东湖镇云东路东湖景区内,绍兴市,越城区,120.63533,29.997269,POINT (120.63533 29.997269)
11856,安康泉,市郊香炉峰炉峰禅寺内,绍兴市,越城区,120.607567,29.952869,POINT (120.607567 29.952869)
11857,会稽山大禹像,会稽山麓大禹陵景区内,绍兴市,越城区,120.618805,29.961624,POINT (120.618805 29.961624)
11858,御风楼,市郊香炉峰炉峰禅寺内,绍兴市,越城区,120.608871,29.947222,POINT (120.608871 29.947222)
11860,潮英桥,市郊香炉峰炉峰禅寺内,绍兴市,越城区,120.612946,29.948023,POINT (120.612946 29.948023)
11861,西门楼,市郊香炉峰炉峰禅寺内,绍兴市,越城区,120.607101,29.9559,POINT (120.607101 29.9559)
11863,日月亭,市郊香炉峰炉峰禅寺内,绍兴市,越城区,120.613708,29.945911,POINT (120.613708 29.945911)
11865,秦桥,东湖镇云东路东湖景区内,绍兴市,越城区,120.633751,29.998575,POINT (120.633751 29.998575)
11866,稷寿楼,东湖镇云东路东湖景区内,绍兴市,越城区,120.636475,29.996889,POINT (120.636475 29.996889)
11867,山光水色,会稽路与杨绍线交叉路口会稽山景区内,绍兴市,越城区,120.612053,29.962587,POINT (120.612053 29.962587)
11868,山光水色,会稽路与杨绍线交叉路口会稽山景区内,绍兴市,越城区,120.602249,29.965261,POINT (120.602249 29.965261)
11869,九龙照壁,市郊香炉峰炉峰禅寺内,绍兴市,越城区,120.607567,29.955866,POINT (120.607567 29.955866)
11872,天影桥,市郊香炉峰炉峰禅寺内,绍兴市,越城区,120.607269,29.95541,POINT (120.607269 29.95541)
11873,箬篑园,东湖镇云东路东湖景区内,绍兴市,越城区,120.629295,30.000237,POINT (120.629295 30.000237)
11874,薛壁居,市郊香炉峰炉峰禅寺内,绍兴市,越城区,120.618118,29.955309,POINT (120.618118 29.955309)
11875,寒碧亭,东湖镇云东路东湖景区内,绍兴市,越城区,120.630096,29.999352,POINT (120.630096 29.999352)
11876,会贤楼,市郊香炉峰炉峰禅寺内,绍兴市,越城区,120.607552,29.954832,POINT (120.607552 29.954832)
11877,祖师殿,市郊香炉峰炉峰禅寺内,绍兴市,越城区,120.607971,29.953176,POINT (120.607971 29.953176)
11891,伽蓝殿,市郊香炉峰炉峰禅寺内,绍兴市,越城区,120.607536,29.953026,POINT (120.607536 29.953026)
11898,绍兴中国汽车城展示中心B馆,丁港直路附近,绍兴市,越城区,120.61058,30.092188,POINT (120.61058 30.092188)
11902,南野堂,本街,绍兴市,越城区,120.729675,30.005484,POINT (120.729675 30.005484)
11906,明池,鲁迅中路318号沈氏园内,绍兴市,越城区,120.589722,29.990362,POINT (120.589722 29.990362)
11908,越城区绍兴会稽山旅游度假区,阳明路8号,绍兴市,越城区,120.627594,29.963514,POINT (120.627594 29.963514)
11914,明琴园,二环北路,绍兴市,越城区,120.574493,30.023066,POINT (120.574493 30.023066)
11916,吼山风景区,皋阜镇,绍兴市,越城区,120.696701,29.994156,POINT (120.696701 29.994156)
11921,烈士纪念碑,府横街258号,绍兴市,越城区,120.57383,30.000513,POINT (120.57383 30.000513)
11922,贺秘监祠,劳动路277号,绍兴市,越城区,120.585251,30.002033,POINT (120.585251 30.002033)
11926,章学诚故居,辛弄1号,绍兴市,越城区,120.579865,29.990217,POINT (120.579865 29.990217)
11927,半间亭,环城北路和昌安立交桥的交叉口附近,绍兴市,越城区,120.587608,30.011534,POINT (120.587608 30.011534)
11928,陈家台门,下大路159号,绍兴市,越城区,120.570694,30.012926,POINT (120.570694 30.012926)
11929,古轩亭口,解放北路389号,绍兴市,越城区,120.580872,30.000273,POINT (120.580872 30.000273)
11930,古越藏书楼,胜利西路503号,绍兴市,越城区,120.572182,30.004368,POINT (120.572182 30.004368)
11932,吼山烈士墓,人民东路,绍兴市,越城区,120.692772,29.993273,POINT (120.692772 29.993273)
11939,塔山园,解放南路589号,绍兴市,越城区,120.580231,29.989023,POINT (120.580231 29.989023)
11941,望远思源,国际摩尔城,绍兴市,越城区,120.568466,30.014027,POINT (120.568466 30.014027)
11942,学士坊,劳动路369号绍兴市职业教育中心分部(南门)附近,绍兴市,越城区,120.585472,30.002026,POINT (120.585472 30.002026)
11944,蕺望亭,环城北路620号,绍兴市,越城区,120.585243,30.011499,POINT (120.585243 30.011499)
11945,利济王墓,树下王路附近,绍兴市,越城区,120.562096,29.995043,POINT (120.562096 29.995043)
11947,风雨亭,府山西路,绍兴市,越城区,120.570847,29.997976,POINT (120.570847 29.997976)
11948,恒济当旧址,东咸欢河沿19,绍兴市,越城区,120.585083,29.993881,POINT (120.585083 29.993881)
11952,广宁桥,广宁桥直街(南邻八字桥),绍兴市,越城区,120.591339,30.00119,POINT (120.591339 30.00119)
11954,鲁迅故居,鲁迅中路229号,绍兴市,越城区,120.584923,29.991955,POINT (120.584923 29.991955)
11955,移风园,新建南路496号,绍兴市,越城区,120.584862,29.993061,POINT (120.584862 29.993061)
11956,绍兴鲁迅故居周家新台门,鲁迅中路229号,绍兴市,越城区,120.585152,29.991955,POINT (120.585152 29.991955)
11958,龙山,二环南路,绍兴市,越城区,120.565071,29.975012,POINT (120.565071 29.975012)
11959,亭山,,绍兴市,越城区,120.554817,29.97633,POINT (120.554817 29.97633)
11961,望海亭,环山路29号,绍兴市,越城区,120.572914,30.001457,POINT (120.572914 30.001457)
11962,华家台门,仓桥直街223号,绍兴市,越城区,120.577713,29.997606,POINT (120.577713 29.997606)
11964,冯家台门,仓桥直街185号,绍兴市,越城区,120.577682,29.99836,POINT (120.577682 29.99836)
11965,钱业会馆,笔飞弄13号,绍兴市,越城区,120.58329,30.006544,POINT (120.58329 30.006544)
11966,守望亭,八字桥直街96号,绍兴市,越城区,120.5914,29.999668,POINT (120.5914 29.999668)
11967,宋家台门,新河弄77号,绍兴市,越城区,120.578377,30.006664,POINT (120.578377 30.006664)
11968,缪家台门,草藐弄5号,绍兴市,越城区,120.5802,30.008039,POINT (120.5802 30.008039)
11969,布业会馆,北后街24号,绍兴市,越城区,120.581551,29.999733,POINT (120.581551 29.999733)
11971,仁慈堂,八字桥直街102号,绍兴市,越城区,120.590668,29.99951,POINT (120.590668 29.99951)
11972,文笔塔,环城北路626号,绍兴市,越城区,120.586922,30.011209,POINT (120.586922 30.011209)
11973,蕺山书院,文笔塔附近,绍兴市,越城区,120.586761,30.01103,POINT (120.586761 30.01103)
11974,尚德当铺,蕺山街86号,绍兴市,越城区,120.586174,30.006704,POINT (120.586174 30.006704)
11975,谢公桥,新河弄181号,绍兴市,越城区,120.573792,30.007219,POINT (120.573792 30.007219)
11980,启航,环城北路9号,绍兴市,越城区,120.568466,30.011438,POINT (120.568466 30.011438)
11981,红枫园,北后街24号,绍兴市,越城区,120.581551,29.999733,POINT (120.581551 29.999733)
11982,马家台门,新河弄79号,绍兴市,越城区,120.578247,30.00662,POINT (120.578247 30.00662)
11984,会稽山天福园,二环南路,绍兴市,越城区,120.608932,29.957245,POINT (120.608932 29.957245)
11985,逸园,仓桥直街355号,绍兴市,越城区,120.578323,30.002708,POINT (120.578323 30.002708)
11986,蔡元培塑像,肖山街6号,绍兴市,越城区,120.582153,30.006571,POINT (120.582153 30.006571)
11987,马臻墓,跨湖桥直街1号,绍兴市,越城区,120.562096,29.995045,POINT (120.562096 29.995045)
11988,凌家山,勾乘路98号,绍兴市,越城区,120.621017,29.984629,POINT (120.621017 29.984629)
11989,樊浦村石碑坊,孙皇公路,绍兴市,越城区,120.732834,30.062746,POINT (120.732834 30.062746)
11990,百草园,鲁迅中路229号,绍兴市,越城区,120.585152,29.991951,POINT (120.585152 29.991951)
11991,后堡桥,后堡村,绍兴市,越城区,120.701927,30.034117,POINT (120.701927 30.034117)
11993,陶成章故居,陶堰村488,绍兴市,越城区,120.728516,30.017094,POINT (120.728516 30.017094)
11995,飞翼楼,环山路29号,绍兴市,越城区,120.572914,30.001457,POINT (120.572914 30.001457)
11996,越大夫文种墓,府山公园内,绍兴市,越城区,120.573296,30.001593,POINT (120.573296 30.001593)
11997,越王殿,府横街258号,绍兴市,越城区,120.574928,29.999996,POINT (120.574928 29.999996)
11998,袍谷古文化遗址,洋江西路,绍兴市,越城区,120.601265,30.046116,POINT (120.601265 30.046116)
12000,鲁迅外婆家朝北台门,马山路,绍兴市,越城区,120.689445,30.077553,POINT (120.689445 30.077553)
12001,朱铁群烈士墓,皋埠镇朱铁群烈士墓,绍兴市,越城区,120.704063,30.03334,POINT (120.704063 30.03334)
12003,鹿池山,勾乘路98号,绍兴市,越城区,120.621758,29.988045,POINT (120.621758 29.988045)
12004,大通师范学堂,胜利西路563号,绍兴市,越城区,120.571342,30.004524,POINT (120.571342 30.004524)
12005,夏禹文化园,二环东路,绍兴市,越城区,120.607239,29.967072,POINT (120.607239 29.967072)
12008,应天塔,解放南路589号,绍兴市,越城区,120.580215,29.989182,POINT (120.580215 29.989182)
12009,吕府,新河弄169号,绍兴市,越城区,120.574554,30.007458,POINT (120.574554 30.007458)
12011,百鸟乐园,大禹陵风景区,绍兴市,越城区,120.608551,29.962988,POINT (120.608551 29.962988)
12014,三接桥,S24绍诸高速出口,绍兴市,越城区,120.572151,29.924635,POINT (120.572151 29.924635)
12016,石屋婵院造像,32省道,绍兴市,越城区,120.599533,29.963184,POINT (120.599533 29.963184)
12017,富盛战国遗址,平陶公路,绍兴市,越城区,120.724068,29.95785,POINT (120.724068 29.95785)
12018,东堡印纹陶窑址,西桐公路,绍兴市,越城区,120.67482,29.960995,POINT (120.67482 29.960995)
12019,建初买地摩崖题刻,富盛镇,绍兴市,越城区,120.735252,29.965345,POINT (120.735252 29.965345)
12020,光相桥,桥直街,绍兴市,越城区,120.573586,30.010973,POINT (120.573586 30.010973)
12021,吼山原始青瓷遗址,人民东路,绍兴市,越城区,120.694,29.992886,POINT (120.694 29.992886)
12022,青塘青瓷窑址,101县道,绍兴市,越城区,120.753036,29.960283,POINT (120.753036 29.960283)
12023,大善塔,西营左侧,绍兴市,越城区,120.580498,30.002611,POINT (120.580498 30.002611)
12024,西施山遗址公园,范蠡路89号,绍兴市,越城区,120.59771,30.006504,POINT (120.59771 30.006504)
12025,古井园,二环南路附近,绍兴市,越城区,120.597099,29.966602,POINT (120.597099 29.966602)
12026,稽山园,稽山路308号,绍兴市,越城区,120.594666,29.982056,POINT (120.594666 29.982056)
12031,钱家台门,新河弄99号,绍兴市,越城区,120.577187,30.006903,POINT (120.577187 30.006903)
12032,胡家台门,西小路70号,绍兴市,越城区,120.573418,30.00779,POINT (120.573418 30.00779)
12034,来王殿,下大路101号,绍兴市,越城区,120.577888,30.009102,POINT (120.577888 30.009102)
12037,余家桥,二环西路附近,绍兴市,越城区,120.54567,30.004576,POINT (120.54567 30.004576)
12044,鲁迅外婆家景区,G92杭州湾环线高速,绍兴市,越城区,120.689339,30.079082,POINT (120.689339 30.079082)
12045,十里筠溪风景区,003乡道,绍兴市,越城区,120.57045,29.901688,POINT (120.57045 29.901688)
12048,宛委山樱花林,绍兴宛委山,绍兴市,越城区,120.629265,29.952007,POINT (120.629265 29.952007)
12055,西城古韵,新河弄153号,绍兴市,越城区,120.574799,30.007202,POINT (120.574799 30.007202)
12056,谐园,八字桥直街96号,绍兴市,越城区,120.590996,29.999521,POINT (120.590996 29.999521)
12058,迎恩门,摩尔灯饰城附近,绍兴市,越城区,120.568466,30.014027,POINT (120.568466 30.014027)
12063,东湖大佛,迎宾路,绍兴市,越城区,120.637527,29.995983,POINT (120.637527 29.995983)
12067,题扇桥,昌安门附近,绍兴市,越城区,120.586426,30.00638,POINT (120.586426 30.00638)
12073,菲饮泉,大禹陵风景区内(禹庙北侧),绍兴市,越城区,120.613495,29.964806,POINT (120.613495 29.964806)
12074,石泉庵,凤凰村,绍兴市,越城区,120.569962,29.960394,POINT (120.569962 29.960394)
12075,关帝殿,皋马线附近,绍兴市,越城区,120.667053,30.039574,POINT (120.667053 30.039574)
12076,镜湖国家城市湿地中心,红湖农场附近,绍兴市,越城区,120.55777,30.078266,POINT (120.55777 30.078266)
12077,琵琶山庵,,绍兴市,越城区,120.564308,29.945696,POINT (120.564308 29.945696)
12081,同庆寺,东湖镇高平村,绍兴市,越城区,120.662315,30.023298,POINT (120.662315 30.023298)
12083,铁壁玉泉,会稽路与杨绍线交叉路口会稽山景区内,绍兴市,越城区,120.612488,29.962994,POINT (120.612488 29.962994)
12084,包公殿,张市路附近,绍兴市,越城区,120.564133,30.051126,POINT (120.564133 30.051126)
12085,明心庵,,绍兴市,越城区,120.554062,30.089539,POINT (120.554062 30.089539)
12086,二帝殿,袍江开发区西堰村,绍兴市,越城区,120.606194,30.10796,POINT (120.606194 30.10796)
12087,岣嵝碑,会稽山麓大禹陵景区内,绍兴市,越城区,120.613152,29.964695,POINT (120.613152 29.964695)
12091,鼓亭,会稽山麓大禹陵景区内,绍兴市,越城区,120.611671,29.964556,POINT (120.611671 29.964556)
12092,禹庙,会稽山麓大禹陵景区内,绍兴市,越城区,120.613274,29.965193,POINT (120.613274 29.965193)
12093,谢家台门,延安路413号,绍兴市,越城区,120.589195,29.989346,POINT (120.589195 29.989346)
12096,永和塔,二环南路(近小亭山永和庄园度假酒店),绍兴市,越城区,120.559258,29.970036,POINT (120.559258 29.970036)
12097,越国遗址,越国遗址,绍兴市,越城区,120.574883,29.999758,POINT (120.574883 29.999758)
12098,山北庵,二环南路附近,绍兴市,越城区,120.559372,29.972715,POINT (120.559372 29.972715)
12099,禹迹馆,会稽山麓大禹陵景区内,绍兴市,越城区,120.611191,29.965143,POINT (120.611191 29.965143)
12100,福清庵,解放南路762号望花小区,绍兴市,越城区,120.582031,29.983807,POINT (120.582031 29.983807)
12101,水上祭坛,会稽山旅游度假区大禹陵景区,绍兴市,越城区,120.612167,29.964624,POINT (120.612167 29.964624)
12102,花庙,袍中路附近,绍兴市,越城区,120.613312,30.046665,POINT (120.613312 30.046665)
12103,绍兴解元台门,西街136号,绍兴市,越城区,120.584473,30.008045,POINT (120.584473 30.008045)
12106,眼光娘娘庙,外山山沿9号附近,绍兴市,越城区,120.570763,29.983356,POINT (120.570763 29.983356)
12110,雅园,府山西路,绍兴市,越城区,120.57003,29.99955,POINT (120.57003 29.99955)
12111,沁园,府山西路,绍兴市,越城区,120.569984,29.999283,POINT (120.569984 29.999283)
12112,夏园,府山西路,绍兴市,越城区,120.57,29.999395,POINT (120.57 29.999395)
12113,冬园,府山西路459号,绍兴市,越城区,120.569916,29.999119,POINT (120.569916 29.999119)
12116,薛渎土地庙,,绍兴市,越城区,120.526642,30.074717,POINT (120.526642 30.074717)
12117,春波亭,城市广场28附近,绍兴市,越城区,120.577477,30.002796,POINT (120.577477 30.002796)
12119,明亮堂,环山路1号,绍兴市,越城区,120.57589,30.000195,POINT (120.57589 30.000195)
12124,九鼎台,会稽山麓大禹陵景区内,绍兴市,越城区,120.611679,29.965094,POINT (120.611679 29.965094)
12126,飞盖堂,府山西路465号附近,绍兴市,越城区,120.569244,29.99704,POINT (120.569244 29.99704)
12128,孙清简祠,偏门直街26附近,绍兴市,越城区,120.573792,29.997637,POINT (120.573792 29.997637)
12129,石帆山大禹铜像,大禹陵景区内,绍兴市,越城区,120.613815,29.963932,POINT (120.613815 29.963932)
12133,雪村,绍兴文理学院内,绍兴市,越城区,120.574768,29.989426,POINT (120.574768 29.989426)
12135,大宁寺,101县道附近,绍兴市,越城区,120.689278,29.932747,POINT (120.689278 29.932747)
12137,半江庵,中兴大道119附近,绍兴市,越城区,120.599251,30.032717,POINT (120.599251 30.032717)
12146,杜家台门,下大路84号附近,绍兴市,越城区,120.578972,30.008284,POINT (120.578972 30.008284)
12148,竹园,府山西路,绍兴市,越城区,120.570244,30.000589,POINT (120.570244 30.000589)
12150,兰园,府山西路419号,绍兴市,越城区,120.570168,30.00038,POINT (120.570168 30.00038)
12151,春园(府山西路),府山西路433号附近,绍兴市,越城区,120.570068,29.999756,POINT (120.570068 29.999756)
12152,菊园,府山新村,绍兴市,越城区,120.570282,30.001028,POINT (120.570282 30.001028)
12153,翠园,府山西路381号,绍兴市,越城区,120.570297,30.001251,POINT (120.570297 30.001251)
12154,桑园,府山西路341号,绍兴市,越城区,120.570351,30.001623,POINT (120.570351 30.001623)
12157,秋芳亭,环城西路88号附近,绍兴市,越城区,120.568741,29.997585,POINT (120.568741 29.997585)
12168,祭禹广场,会稽山旅游度假区大禹陵景区,绍兴市,越城区,120.611717,29.964977,POINT (120.611717 29.964977)
12169,秋风亭,胜利西路278附近,绍兴市,越城区,120.576622,30.003908,POINT (120.576622 30.003908)
12172,望湖楼,环城西路92附近,绍兴市,越城区,120.568855,29.997156,POINT (120.568855 29.997156)
12173,天上观世音菩萨宝殿,西江路附近,绍兴市,越城区,120.574562,29.973034,POINT (120.574562 29.973034)
12174,丝竹亭,环城西路82附近,绍兴市,越城区,120.568886,29.99799,POINT (120.568886 29.99799)
12175,贡园,府山西路377号,绍兴市,越城区,120.57032,30.001438,POINT (120.57032 30.001438)
12176,古井画廊,仓桥直街169号古井巷口,绍兴市,越城区,120.577713,29.998869,POINT (120.577713 29.998869)
12177,石门槛,仓桥直街191号,绍兴市,越城区,120.577759,29.998009,POINT (120.577759 29.998009)
12179,迎岚阁,稽山路308号,绍兴市,越城区,120.594246,29.981836,POINT (120.594246 29.981836)
12180,富康医院旧址,新建南路附近,绍兴市,越城区,120.58429,29.989632,POINT (120.58429 29.989632)
12184,节园,府山西路367号104室,绍兴市,越城区,120.570358,30.001808,POINT (120.570358 30.001808)
12185,王羲之陈列馆,戴山斜桥弄,绍兴市,越城区,120.585693,30.005838,POINT (120.585693 30.005838)
12186,龙口庙,金川路7号杨川文化活动中心附近,绍兴市,越城区,120.527802,30.063156,POINT (120.527802 30.063156)
12188,田园,府山西路425号,绍兴市,越城区,120.570168,30.000158,POINT (120.570168 30.000158)
12193,法界寺,,绍兴市,上虞区,120.981819,30.005665,POINT (120.981819 30.005665)
12194,包公殿,,绍兴市,上虞区,120.839546,29.999676,POINT (120.839546 29.999676)
12195,上虞名人聚会碑记,江东中路387,绍兴市,上虞区,120.858643,30.028248,POINT (120.858643 30.028248)
12197,覆卮山景区,东澄村附近,绍兴市,上虞区,120.985779,29.743811,POINT (120.985779 29.743811)
12204,滨海向日葵基地,,绍兴市,上虞区,120.713181,30.127127,POINT (120.713181 30.127127)
12207,五泄胜景,五泄镇五泄风景区内,绍兴市,诸暨市,120.050858,29.704702,POINT (120.050858 29.704702)
12211,百家圣地,,温州市,瑞安市,120.714188,27.836634,POINT (120.714188 27.836634)
12242,桃花源生态旅游区,长塘镇桃源村,绍兴市,上虞区,120.776672,29.953014,POINT (120.776672 29.953014)
12245,王充墓,G15W常台高速附近,绍兴市,上虞区,120.841515,29.798906,POINT (120.841515 29.798906)
12247,曹娥江风景名胜区,329国道辅路,绍兴市,上虞区,120.831192,30.047567,POINT (120.831192 30.047567)
12251,东山景区,上浦镇,绍兴市,上虞区,120.859352,29.888346,POINT (120.859352 29.888346)
12252,窑寺前青瓷窑址,507县道,绍兴市,上虞区,120.884163,29.911062,POINT (120.884163 29.911062)
12253,小仙坛青瓷窑遗址,上浦镇石浦村,绍兴市,上虞区,120.819672,29.891731,POINT (120.819672 29.891731)
12254,谢安故居,012乡道,绍兴市,上虞区,120.851921,29.890779,POINT (120.851921 29.890779)
12256,卧龙山,西南隅,绍兴市,上虞区,120.846268,29.960127,POINT (120.846268 29.960127)
12258,夹塘战斗纪念碑,515县道附近,绍兴市,上虞区,121.021889,29.994213,POINT (121.021889 29.994213)
12271,陈溪浪撞漂流景区,四明山陈溪乡虹溪村,绍兴市,上虞区,121.069817,29.800385,POINT (121.069817 29.800385)
12274,谢晋故居,谢塘镇谢塘灵惠街96号,绍兴市,上虞区,120.902626,30.117971,POINT (120.902626 30.117971)
12279,曹娥江城防景区,江东路119号,绍兴市,上虞区,120.87233,30.018328,POINT (120.87233 30.018328)
12287,普净寺大殿,G15W常台高速附近,绍兴市,上虞区,120.845726,29.959969,POINT (120.845726 29.959969)
12288,三宝殿,孝女路,绍兴市,上虞区,120.866081,29.981939,POINT (120.866081 29.981939)
12291,杨太尉殿,517县道,绍兴市,上虞区,120.793541,29.917809,POINT (120.793541 29.917809)
12295,龙山烈士墓,江东路,绍兴市,上虞区,120.880196,30.006796,POINT (120.880196 30.006796)
12298,罗岭青瓷窑遗址,017乡道,绍兴市,上虞区,120.949242,29.981495,POINT (120.949242 29.981495)
12301,英台故里,507县道附近,绍兴市,上虞区,120.919014,29.960592,POINT (120.919014 29.960592)
12302,舜帝陵,江东路,绍兴市,上虞区,120.880966,30.005835,POINT (120.880966 30.005835)
12303,鞍山龙窑遗址,015乡道附近,绍兴市,上虞区,120.86541,29.876259,POINT (120.86541 29.876259)
12313,龙安亭,502县道附近,绍兴市,上虞区,121.019791,29.758698,POINT (121.019791 29.758698)
12318,称心寺,,绍兴市,上虞区,120.774803,30.056149,POINT (120.774803 30.056149)
12321,太傅祠,,绍兴市,上虞区,120.86071,29.89143,POINT (120.86071 29.89143)
12322,祥麟桥,,绍兴市,上虞区,120.764038,30.022238,POINT (120.764038 30.022238)
12323,朱自清旧居,,绍兴市,上虞区,120.923393,30.029238,POINT (120.923393 30.029238)
12324,敕五堂胡愈之故居,百丰路附近,绍兴市,上虞区,120.9832,29.946033,POINT (120.9832 29.946033)
12325,啸吟大有堂台门,肖金居委后街20号,绍兴市,上虞区,120.752327,30.06646,POINT (120.752327 30.06646)
12326,绿筠庵,横江村,绍兴市,上虞区,120.806808,29.999035,POINT (120.806808 29.999035)
12327,称山风景区,道墟镇称山狮顾岙村,绍兴市,上虞区,120.7743,30.057829,POINT (120.7743 30.057829)
12328,镜水庵,,绍兴市,上虞区,120.922508,30.055885,POINT (120.922508 30.055885)
12329,普陀庵,,绍兴市,上虞区,120.788483,30.031811,POINT (120.788483 30.031811)
12330,亭山寺,梁湖镇梁湖镇古里巷村,绍兴市,上虞区,120.879211,29.973076,POINT (120.879211 29.973076)
12332,虞舜宗祠,,绍兴市,上虞区,120.864861,29.990906,POINT (120.864861 29.990906)
12334,镇海寺,,绍兴市,上虞区,120.727661,30.093513,POINT (120.727661 30.093513)
12335,福胜禅寺,,绍兴市,上虞区,120.79792,30.092529,POINT (120.79792 30.092529)
12336,天王殿,,绍兴市,上虞区,120.774872,29.954576,POINT (120.774872 29.954576)
12337,大舜庙,舜耕大道,绍兴市,上虞区,120.867104,29.991743,POINT (120.867104 29.991743)
12339,东岳庙,,绍兴市,上虞区,120.79969,29.869785,POINT (120.79969 29.869785)
12341,应施庙,,绍兴市,上虞区,121.036873,29.973467,POINT (121.036873 29.973467)
12342,祠平基,,绍兴市,上虞区,120.841988,29.958286,POINT (120.841988 29.958286)
12344,职山禅寺,越窑路附近,绍兴市,上虞区,120.850868,29.989265,POINT (120.850868 29.989265)
12345,莲泉古庵,,绍兴市,上虞区,120.773102,30.06004,POINT (120.773102 30.06004)
12346,平帅祠,,绍兴市,上虞区,120.800323,30.113087,POINT (120.800323 30.113087)
12347,凤凰山般若寺,曹娥大街舜耕公园,绍兴市,上虞区,120.865112,29.993238,POINT (120.865112 29.993238)
12350,东渡寺,,绍兴市,上虞区,120.802109,30.016184,POINT (120.802109 30.016184)
12352,祥麟土谷祠,,绍兴市,上虞区,120.764061,30.022346,POINT (120.764061 30.022346)
12353,丛善寺,长塘镇长塘镇桃园村桃花源内,绍兴市,上虞区,120.774986,29.954178,POINT (120.774986 29.954178)
12354,月山庙,502县道附近,绍兴市,上虞区,121.010818,29.861755,POINT (121.010818 29.861755)
12357,万寿寺,外环南路附近,绍兴市,上虞区,120.978012,29.944248,POINT (120.978012 29.944248)
12359,徐恒兴台门,羊角园路,绍兴市,上虞区,120.818108,30.00816,POINT (120.818108 30.00816)
12360,地藏禅寺,孝女路附近,绍兴市,上虞区,120.870102,29.985052,POINT (120.870102 29.985052)
12363,人口文化园,郑旦路附近,绍兴市,诸暨市,120.239105,29.699924,POINT (120.239105 29.699924)
12367,卢山禅寺,街亭镇,绍兴市,诸暨市,120.277397,29.6451,POINT (120.277397 29.6451)
12370,芝山道院,,绍兴市,诸暨市,120.164581,29.707108,POINT (120.164581 29.707108)
12371,延庆寺,璜山镇和平村,绍兴市,诸暨市,120.345459,29.538458,POINT (120.345459 29.538458)
12372,彭坞殿,城王线附近,绍兴市,诸暨市,120.252312,29.665394,POINT (120.252312 29.665394)
12373,诸山寺,,绍兴市,诸暨市,120.133881,29.662674,POINT (120.133881 29.662674)
12374,拙园,街璜线附近,绍兴市,诸暨市,120.287842,29.625198,POINT (120.287842 29.625198)
12376,兴福寺,322县道附近,绍兴市,诸暨市,120.163963,29.579086,POINT (120.163963 29.579086)
12379,后岭禅寺,,绍兴市,诸暨市,120.355133,29.946695,POINT (120.355133 29.946695)
12381,长业·青岭闲云山庄,大山路附近,绍兴市,诸暨市,120.42231,29.749008,POINT (120.42231 29.749008)
12382,井霞禅寺,书院路附近,绍兴市,诸暨市,120.344742,29.611229,POINT (120.344742 29.611229)
12383,中水门,暨阳街道浣纱中路,绍兴市,诸暨市,120.23735,29.711443,POINT (120.23735 29.711443)
12385,贤祥寺,,绍兴市,诸暨市,120.328438,29.801231,POINT (120.328438 29.801231)
12386,凉风洞,王家井镇十三房村,绍兴市,诸暨市,120.165237,29.655781,POINT (120.165237 29.655781)
12387,文殊菩萨,之江路148号宋城,杭州市,西湖区,120.096825,30.170151,POINT (120.096825 30.170151)
12388,大岩寺,,绍兴市,诸暨市,120.351112,29.632126,POINT (120.351112 29.632126)
12389,凉风禅寺,诸暨服务区附近,绍兴市,诸暨市,120.166412,29.657984,POINT (120.166412 29.657984)
12392,龙王殿,牌头镇斗岩风景区,绍兴市,诸暨市,120.138481,29.621737,POINT (120.138481 29.621737)
12395,梅林寺,,绍兴市,诸暨市,120.090973,29.604576,POINT (120.090973 29.604576)
12398,五洩禅寺,(应店街镇),绍兴市,诸暨市,120.051826,29.73218,POINT (120.051826 29.73218)
12399,如来宝塔,,绍兴市,诸暨市,120.156883,29.668837,POINT (120.156883 29.668837)
12405,南孟故里,十渚线,绍兴市,诸暨市,120.136513,29.776123,POINT (120.136513 29.776123)
12409,郑旦亭,苎罗东路2号西施故里内,绍兴市,诸暨市,120.238129,29.699673,POINT (120.238129 29.699673)
12411,浣纱女群雕,苎罗东路2号西施故里内,绍兴市,诸暨市,120.238022,29.701811,POINT (120.238022 29.701811)
12412,翰泽堂书画奇石馆,古越街10号,绍兴市,诸暨市,120.238304,29.700298,POINT (120.238304 29.700298)
12413,翰泽堂,苎罗东路2号西施故里内,绍兴市,诸暨市,120.238297,29.700287,POINT (120.238297 29.700287)
12414,西施传说,苎罗东路2号西施故里内,绍兴市,诸暨市,120.238411,29.699888,POINT (120.238411 29.699888)
12415,金鸡塔,苎罗东路2号西施故里金鸡山内,绍兴市,诸暨市,120.239708,29.69795,POINT (120.239708 29.69795)
12416,绍兴诸暨章家坪双蝠休闲农庄,应店街镇,绍兴市,诸暨市,120.091583,29.797937,POINT (120.091583 29.797937)
12417,越王剑,苎罗东路2号浣纱女群雕附近,绍兴市,诸暨市,120.238258,29.701561,POINT (120.238258 29.701561)
12421,斯氏古民居建筑群,303县道附近,绍兴市,诸暨市,120.450638,29.569214,POINT (120.450638 29.569214)
12424,荷香亭,苎罗东路2号西施故里内,绍兴市,诸暨市,120.238541,29.702065,POINT (120.238541 29.702065)
12426,古越堂,苎罗东路2号西施故里内,绍兴市,诸暨市,120.238335,29.70015,POINT (120.238335 29.70015)
12427,古越壹号,古越街1号,绍兴市,诸暨市,120.238159,29.701332,POINT (120.238159 29.701332)
12428,越秀亭,苎罗东路2号西施故里内,绍兴市,诸暨市,120.237907,29.70163,POINT (120.237907 29.70163)
12429,西施滩,,绍兴市,诸暨市,120.24044,29.691704,POINT (120.24044 29.691704)
12440,钟楼,灵隐支路附近,杭州市,西湖区,120.102539,30.240326,POINT (120.102539 30.240326)
12441,普安寺,黄泽镇黄泽镇湖塘沿村,绍兴市,嵊州市,120.909286,29.571493,POINT (120.909286 29.571493)
12442,大王庙,,绍兴市,嵊州市,120.783974,29.597679,POINT (120.783974 29.597679)
12462,瞻山庙瞻山风景区,崇仁镇廿八都东侧,绍兴市,嵊州市,120.702271,29.631277,POINT (120.702271 29.631277)
12463,崇仁古镇,王崇线玉山公路,绍兴市,嵊州市,120.70816,29.609331,POINT (120.70816 29.609331)
12466,马寅初故居,名人路74号,绍兴市,嵊州市,120.858078,29.630798,POINT (120.858078 29.630798)
12467,马寅初故居,名人路74号,绍兴市,嵊州市,120.857445,29.635592,POINT (120.857445 29.635592)
12468,南山湖风景名胜区,长乐镇,绍兴市,嵊州市,120.604095,29.417479,POINT (120.604095 29.417479)
12469,王羲之墓,,绍兴市,嵊州市,121.067352,29.548557,POINT (121.067352 29.548557)
12470,贵门更楼,贵门乡贵门山,绍兴市,嵊州市,120.607246,29.40704,POINT (120.607246 29.40704)
12471,马寅初墓,104国道,绍兴市,嵊州市,120.824348,29.689754,POINT (120.824348 29.689754)
12473,梅园,805县道,绍兴市,嵊州市,120.613991,29.539139,POINT (120.613991 29.539139)
12484,济渡烈士墓,802县道附近,绍兴市,嵊州市,121.07093,29.542934,POINT (121.07093 29.542934)
12485,溪山第1楼,百步街9号,绍兴市,嵊州市,120.819298,29.589808,POINT (120.819298 29.589808)
12486,相公殿,官河横路8号-18,绍兴市,嵊州市,120.830498,29.593168,POINT (120.830498 29.593168)
12487,金庭观,金庭镇,绍兴市,嵊州市,121.067009,29.545195,POINT (121.067009 29.545195)
12496,剡溪漂流旅游区,甘霖镇施家岙村,绍兴市,嵊州市,120.783844,29.518473,POINT (120.783844 29.518473)
12499,浙东大龙谷,南山风景区,绍兴市,嵊州市,120.608948,29.423895,POINT (120.608948 29.423895)
12504,天兴潭景区,省绍兴,绍兴市,嵊州市,120.600624,29.370953,POINT (120.600624 29.370953)
12505,中国女子越剧诞生地,甘霖镇施家岙村剡溪漂流旅游区附近,绍兴市,嵊州市,120.783379,29.518515,POINT (120.783379 29.518515)
12510,独秀山风景区,G1512甬金高速,绍兴市,嵊州市,120.751656,29.526897,POINT (120.751656 29.526897)
12512,吕谢湖,浦南三路,绍兴市,嵊州市,120.857933,29.647343,POINT (120.857933 29.647343)
12527,灵岩寺,,绍兴市,嵊州市,120.602226,29.636013,POINT (120.602226 29.636013)
12528,胡公殿,817县道附近,绍兴市,嵊州市,120.535072,29.602024,POINT (120.535072 29.602024)
12530,嵊州包公殿,,绍兴市,嵊州市,120.793381,29.557077,POINT (120.793381 29.557077)
12531,始宁城隍庙,104国道附近,绍兴市,嵊州市,120.851883,29.762285,POINT (120.851883 29.762285)
12532,长善寺,032乡道附近,绍兴市,嵊州市,120.704689,29.608183,POINT (120.704689 29.608183)
12533,静修寺,甬金高速德仁庵附近,绍兴市,嵊州市,121.049278,29.556044,POINT (121.049278 29.556044)
12534,清溪漂流起漂码头,006乡道,绍兴市,嵊州市,120.975838,29.692226,POINT (120.975838 29.692226)
12535,天竺浄寺,037乡道附近,绍兴市,嵊州市,120.757851,29.675905,POINT (120.757851 29.675905)
12537,十王禅寺,高村54号,绍兴市,嵊州市,120.822182,29.566708,POINT (120.822182 29.566708)
12540,将军殿,042乡道附近,绍兴市,嵊州市,120.821068,29.64336,POINT (120.821068 29.64336)
12541,土地庙,029乡道附近,绍兴市,嵊州市,120.538872,29.680031,POINT (120.538872 29.680031)
12542,王羲之纪念馆,金庭镇羲之村,绍兴市,嵊州市,121.066963,29.546551,POINT (121.066963 29.546551)
12543,剡南寺,816县道附近,绍兴市,嵊州市,120.754578,29.481939,POINT (120.754578 29.481939)
12545,东土灵山庵,,绍兴市,嵊州市,120.955147,29.630066,POINT (120.955147 29.630066)
12546,云淡庙,,绍兴市,嵊州市,121.113449,29.603554,POINT (121.113449 29.603554)
12548,瞻山庙旅游风景区,崇仁镇崇仁镇廿八都东侧,绍兴市,嵊州市,120.701836,29.632183,POINT (120.701836 29.632183)
12549,山公庙,,绍兴市,嵊州市,120.635033,29.593674,POINT (120.635033 29.593674)
12550,清溪漂流服务区,下王镇上店村,绍兴市,嵊州市,120.958733,29.699398,POINT (120.958733 29.699398)
12551,画庙,,绍兴市,嵊州市,120.697403,29.666956,POINT (120.697403 29.666956)
12552,大王庙,加佳路60附近,绍兴市,嵊州市,120.858803,29.578386,POINT (120.858803 29.578386)
12553,平盘峧,,绍兴市,嵊州市,120.823021,29.719164,POINT (120.823021 29.719164)
12554,独秀山大明寺,甘霖镇独秀山,绍兴市,嵊州市,120.751251,29.526585,POINT (120.751251 29.526585)
12560,犁壁庙,甬金高速新田村村委会附近,绍兴市,嵊州市,120.932327,29.565655,POINT (120.932327 29.565655)
12564,风神庙,104县道附近,绍兴市,嵊州市,120.716759,29.645485,POINT (120.716759 29.645485)
12566,高家庙,惠民街附近,绍兴市,嵊州市,120.823761,29.57597,POINT (120.823761 29.57597)
12567,剡城城墙,江滨东路101号附近,绍兴市,嵊州市,120.825333,29.587477,POINT (120.825333 29.587477)
12571,百丈飞瀑漂流,石磺镇,绍兴市,嵊州市,120.618179,29.568748,POINT (120.618179 29.568748)
12572,丝绸世界景区,达利发路1号,绍兴市,新昌县,120.839462,29.519627,POINT (120.839462 29.519627)
12574,花云洞,,绍兴市,新昌县,120.838028,29.500992,POINT (120.838028 29.500992)
12575,天烛湖,山顶坪村旁,绍兴市,新昌县,120.866447,29.456015,POINT (120.866447 29.456015)
12579,石城,人民西路117号,绍兴市,新昌县,120.890701,29.500952,POINT (120.890701 29.500952)
12584,重阳宫,城关镇鼓山东路192号,绍兴市,新昌县,120.891083,29.502029,POINT (120.891083 29.502029)
12587,七盘仙谷风景区鸣呵谷,042乡道附近,绍兴市,新昌县,120.874168,29.456503,POINT (120.874168 29.456503)
12598,沃洲湖风景区,长诏村旁,绍兴市,新昌县,120.993645,29.432116,POINT (120.993645 29.432116)
12603,百丈岩景,042乡道附近,绍兴市,新昌县,120.873947,29.472048,POINT (120.873947 29.472048)
12604,天烛湖风景区,043乡道附近,绍兴市,新昌县,120.868179,29.456289,POINT (120.868179 29.456289)
12609,穿岩十九峰风景名胜区,,绍兴市,新昌县,120.803436,29.377266,POINT (120.803436 29.377266)
12610,倒脱鞋,东茗乡,绍兴市,新昌县,120.850227,29.361925,POINT (120.850227 29.361925)
12620,千丈幽谷风景区,左于村十九峰,绍兴市,新昌县,120.809662,29.379148,POINT (120.809662 29.379148)
12621,十九峰,604县道附近,绍兴市,新昌县,120.797394,29.400845,POINT (120.797394 29.400845)
12623,重阳宫,穿岩十九峰风景名胜区,绍兴市,新昌县,120.811401,29.386961,POINT (120.811401 29.386961)
12628,七盘仙谷,042乡道,绍兴市,新昌县,120.872223,29.456554,POINT (120.872223 29.456554)
12631,望江阁,文体路江滨公园(新昌县建筑业管理局北)附近,绍兴市,新昌县,120.904472,29.504852,POINT (120.904472 29.504852)
12640,丰乐乡主庙,梅渚镇前三村,绍兴市,新昌县,120.812157,29.467537,POINT (120.812157 29.467537)
12641,竺庙,,绍兴市,新昌县,120.771629,29.424316,POINT (120.771629 29.424316)
12649,玄帝庙,西昌北路25附近,绍兴市,新昌县,120.895218,29.511452,POINT (120.895218 29.511452)
12652,易道馆,桂苑一路10附近,绍兴市,新昌县,120.890457,29.501427,POINT (120.890457 29.501427)
12657,蛤蟆峰,北山路35号宝石流霞附近,杭州市,西湖区,120.14592,30.259943,POINT (120.14592 30.259943)
12661,钗头凤碑,鲁迅中路318号沈氏园内,绍兴市,越城区,120.589676,29.99011,POINT (120.589676 29.99011)
12662,广耜斋,鲁迅中路318号沈氏园东苑内,绍兴市,越城区,120.590614,29.990143,POINT (120.590614 29.990143)
12663,祭祀神道,会稽路与杨绍线交叉路口会稽山景区内,绍兴市,越城区,120.608307,29.966217,POINT (120.608307 29.966217)
12666,龙山诗巢,环城西路78附近,绍兴市,越城区,120.568939,29.998211,POINT (120.568939 29.998211)
12668,题扇亭,蕺山街57号附近,绍兴市,越城区,120.586342,30.006033,POINT (120.586342 30.006033)
12669,石门桥,仓桥直街202号,绍兴市,越城区,120.577225,29.997948,POINT (120.577225 29.997948)
12671,禹裔馆,二环南路1988号,绍兴市,越城区,120.611977,29.96657,POINT (120.611977 29.96657)
12673,冬瑞亭,府山西路491附近,绍兴市,越城区,120.569618,29.997728,POINT (120.569618 29.997728)
12676,兰园(禹陵路),二环南路1988号,绍兴市,越城区,120.611931,29.966734,POINT (120.611931 29.966734)
12678,冷翠亭,鲁迅中路318号沈氏园内,绍兴市,越城区,120.590012,29.990763,POINT (120.590012 29.990763)
12685,龙门桥,环山路附近,绍兴市,越城区,120.577263,30.002745,POINT (120.577263 30.002745)
12691,孤鹤轩,鲁迅中路318号沈氏园内,绍兴市,越城区,120.589699,29.990425,POINT (120.589699 29.990425)
12692,闲云亭,鲁迅中路318号沈氏园内,绍兴市,越城区,120.589546,29.990396,POINT (120.589546 29.990396)
12693,遗墨,延安路439号,绍兴市,越城区,120.589722,29.989338,POINT (120.589722 29.989338)
12694,八咏楼,鲁迅中路沈园游客中心,绍兴市,越城区,120.589516,29.990711,POINT (120.589516 29.990711)
12695,告成桥,会稽山麓大禹陵景区内,绍兴市,越城区,120.612503,29.96483,POINT (120.612503 29.96483)
12696,祀禹录,南会稽山麓会稽山旅游度假区大禹陵景区禹庙内,绍兴市,越城区,120.612976,29.965054,POINT (120.612976 29.965054)
12697,大禹文化古村,二环南路1988号附近,绍兴市,越城区,120.611969,29.966097,POINT (120.611969 29.966097)
12698,官河埠头,二环南路1988号,绍兴市,越城区,120.612251,29.966877,POINT (120.612251 29.966877)
12699,九龙坛,会稽路与杨绍线交叉路口会稽山景区内,绍兴市,越城区,120.60495,29.965679,POINT (120.60495 29.965679)
12700,御碑亭,南会稽山麓会稽山旅游度假区大禹陵景区禹庙内,绍兴市,越城区,120.613396,29.96578,POINT (120.613396 29.96578)
12701,拜厅,南会稽山麓会稽山旅游度假区大禹陵景区禹庙内,绍兴市,越城区,120.61319,29.965393,POINT (120.61319 29.965393)
12705,种山欝秀,偏门直街1附近,绍兴市,越城区,120.574989,29.997904,POINT (120.574989 29.997904)
12723,禹贡阁,南会稽山麓会稽山旅游度假区大禹陵景区禹庙内,绍兴市,越城区,120.613274,29.964886,POINT (120.613274 29.964886)
12729,龙山书院,城市广场26号,绍兴市,越城区,120.576927,30.002247,POINT (120.576927 30.002247)
12733,吼山风景名胜区,皋埠镇吼山风景区(人民东路到底)(1路车周末到门口;28路;1路到皋埠枢纽转361路),绍兴市,越城区,120.696793,29.993385,POINT (120.696793 29.993385)
12735,龟山,城南大道616号,绍兴市,越城区,120.574181,29.977503,POINT (120.574181 29.977503)
12748,银岸草暖园,江东街道南门街408号附近,金华市,义乌市,120.076431,29.289536,POINT (120.076431 29.289536)
12813,兰荫山庄,风景区内,金华市,兰溪市,119.459084,29.196795,POINT (119.459084 29.196795)
12817,芥子园,横山路11号,金华市,兰溪市,119.462883,29.197643,POINT (119.462883 29.197643)
12822,金竹陵,S28台金高速,台州市,椒江区,121.393158,28.747993,POINT (121.393158 28.747993)
12823,十八涡景区,尖山镇,金华市,磐安县,120.751976,29.209063,POINT (120.751976 29.209063)
12907,虞舜史画廊,,绍兴市,上虞区,120.867104,29.991743,POINT (120.867104 29.991743)
12912,窑寺前古窑址,,绍兴市,上虞区,120.875832,29.91243,POINT (120.875832 29.91243)
12913,日本天台宗上虞峰山道场,梁巷村,绍兴市,上虞区,120.831139,30.013557,POINT (120.831139 30.013557)
12914,泰安台门,羊角园路,绍兴市,上虞区,120.817993,30.008167,POINT (120.817993 30.008167)
12931,凤凰山生态观光园,杨绍线,绍兴市,柯桥区,120.408028,30.083069,POINT (120.408028 30.083069)
12937,延寿寺,杨渔线附近,绍兴市,柯桥区,120.290253,30.101995,POINT (120.290253 30.101995)
12941,王德祠堂,万商路1230附近,绍兴市,柯桥区,120.468987,30.074808,POINT (120.468987 30.074808)
12947,羊山石佛风景区,齐贤镇羊山风景区,绍兴市,柯桥区,120.544243,30.114285,POINT (120.544243 30.114285)
12952,柯韵亭,鉴湖路630-632附近,绍兴市,柯桥区,120.480202,30.073219,POINT (120.480202 30.073219)
12963,鉴湖景区酒岛乌篷船码头,柯岩大道558号柯岩风景区,绍兴市,柯桥区,120.464928,30.048557,POINT (120.464928 30.048557)
12964,七岩观鱼,柯岩大道518号柯岩风景区,绍兴市,柯桥区,120.484413,30.045143,POINT (120.484413 30.045143)
12965,咸亨兰博园,Z102附近,绍兴市,柯桥区,120.484077,29.943624,POINT (120.484077 29.943624)
12966,垂钓搪,柯岩大道518号柯岩风景区,绍兴市,柯桥区,120.484413,30.045143,POINT (120.484413 30.045143)
12967,葫芦醉岛,柯岩大道518号柯岩风景区鉴湖景区,绍兴市,柯桥区,120.484413,30.045143,POINT (120.484413 30.045143)
12969,日月同辉台,柯岩大道518号柯岩风景区,绍兴市,柯桥区,120.484413,30.045143,POINT (120.484413 30.045143)
12970,大木桥,柯岩大道558号柯岩风景区内,绍兴市,柯桥区,120.476936,30.044703,POINT (120.476936 30.044703)
12971,蔡堰桥,柯岩大道518号柯岩风景区鉴湖景区,绍兴市,柯桥区,120.484413,30.045143,POINT (120.484413 30.045143)
12972,观湖亭,柯岩大道518号柯岩风景区鉴湖景区,绍兴市,柯桥区,120.484413,30.045143,POINT (120.484413 30.045143)
12974,夏禹,柯岩大道518号柯岩风景区,绍兴市,柯桥区,120.484413,30.045143,POINT (120.484413 30.045143)
12978,玉带桥,柯岩大道518号柯岩风景区,绍兴市,柯桥区,120.484413,30.045143,POINT (120.484413 30.045143)
12979,步月亭,柯岩大道518号柯岩风景区鉴湖景区,绍兴市,柯桥区,120.484413,30.045143,POINT (120.484413 30.045143)
12982,镇公所,柯岩大道558号柯岩风景区,绍兴市,柯桥区,120.477364,30.044712,POINT (120.477364 30.044712)
12983,戴琥,柯岩大道518号柯岩风景区,绍兴市,柯桥区,120.484413,30.045143,POINT (120.484413 30.045143)
12985,笛泉,柯岩大道518号柯岩风景区鉴湖景区,绍兴市,柯桥区,120.484413,30.045143,POINT (120.484413 30.045143)
12986,鲁府,柯岩大道558号柯岩风景区,绍兴市,柯桥区,120.47641,30.045467,POINT (120.47641 30.045467)
12987,文昌阁,柯岩大道518号柯岩风景区,绍兴市,柯桥区,120.484413,30.045143,POINT (120.484413 30.045143)
12988,鉴湖碑,柯岩大道518号柯岩风景区,绍兴市,柯桥区,120.484413,30.045143,POINT (120.484413 30.045143)
12989,鉴湖之父马臻,柯岩大道518号柯岩风景区鉴湖景区,绍兴市,柯桥区,120.484413,30.045143,POINT (120.484413 30.045143)
12990,弥勒殿,柯岩大道518号柯岩风景区普照禅寺,绍兴市,柯桥区,120.484413,30.045143,POINT (120.484413 30.045143)
12993,王阳明,柯岩大道518号柯岩风景区,绍兴市,柯桥区,120.484413,30.045143,POINT (120.484413 30.045143)
12994,杜戏台,柯岩大道518号柯岩风景区,绍兴市,柯桥区,120.484413,30.045143,POINT (120.484413 30.045143)
12995,拜台,柯岩大道558号柯岩风景区内,绍兴市,柯桥区,120.480057,30.046919,POINT (120.480057 30.046919)
12996,南洋秋泛,柯岩大道518号柯岩风景区鉴湖景区,绍兴市,柯桥区,120.484413,30.045143,POINT (120.484413 30.045143)
12998,竺可桢,柯岩大道558号柯岩风景区,绍兴市,柯桥区,120.474579,30.046122,POINT (120.474579 30.046122)
13000,拓碑,兰亭镇308省道兰亭景区内,绍兴市,柯桥区,120.501228,29.926186,POINT (120.501228 29.926186)
13001,鲁迅铜像,一零四国道旁柯岩鲁镇,绍兴市,柯桥区,120.477959,30.044481,POINT (120.477959 30.044481)
13002,姚长子,柯岩大道518号柯岩风景区,绍兴市,柯桥区,120.484413,30.045143,POINT (120.484413 30.045143)
13003,蔡元培,柯岩大道518号柯岩风景区,绍兴市,柯桥区,120.484413,30.045143,POINT (120.484413 30.045143)
13004,镜水桥,柯岩大道518号柯岩风景区鉴湖景区五桥步月,绍兴市,柯桥区,120.484413,30.045143,POINT (120.484413 30.045143)
13005,壶觞楼,柯岩大道518号柯岩风景区鉴湖景区,绍兴市,柯桥区,120.484413,30.045143,POINT (120.484413 30.045143)
13006,名士馆,柯岩大道518号柯岩风景区,绍兴市,柯桥区,120.484413,30.045143,POINT (120.484413 30.045143)
13007,会龙桥,柯岩大道518号柯岩风景区鉴湖景区,绍兴市,柯桥区,120.484413,30.045143,POINT (120.484413 30.045143)
13008,集粹轩,柯岩大道518号柯岩风景区普照禅寺,绍兴市,柯桥区,120.484413,30.045143,POINT (120.484413 30.045143)
13009,石竹居,柯岩大道518号柯岩风景区,绍兴市,柯桥区,120.484413,30.045143,POINT (120.484413 30.045143)
13010,孙越崎,柯岩大道558号柯岩风景区,绍兴市,柯桥区,120.474579,30.046139,POINT (120.474579 30.046139)
13011,任伯年,柯岩大道518号柯岩风景区,绍兴市,柯桥区,120.484413,30.045143,POINT (120.484413 30.045143)
13012,揽月榭,柯岩大道518号柯岩风景区鉴湖景区五桥步月,绍兴市,柯桥区,120.484413,30.045143,POINT (120.484413 30.045143)
13013,八仙桥,柯岩大道518号柯岩风景区鉴湖景区五桥步月,绍兴市,柯桥区,120.484413,30.045143,POINT (120.484413 30.045143)
13014,鲁镇牌坊,一零四国道旁柯岩鲁镇,绍兴市,柯桥区,120.477783,30.044592,POINT (120.477783 30.044592)
13015,钱三强,柯岩大道558号柯岩风景区,绍兴市,柯桥区,120.474571,30.046146,POINT (120.474571 30.046146)
13016,王羲之,柯岩大道518号柯岩风景区,绍兴市,柯桥区,120.484413,30.045143,POINT (120.484413 30.045143)
13019,蚕花洞,柯岩大道518号柯岩风景区,绍兴市,柯桥区,120.484413,30.045143,POINT (120.484413 30.045143)
13021,拜石亭,柯岩大道518号柯岩风景区,绍兴市,柯桥区,120.484413,30.045143,POINT (120.484413 30.045143)
13022,柯山桥,柯岩大道518号柯岩风景区鉴湖景区,绍兴市,柯桥区,120.484413,30.045143,POINT (120.484413 30.045143)
13023,系锦桥,柯岩大道518号柯岩风景区鉴湖景区,绍兴市,柯桥区,120.484413,30.045143,POINT (120.484413 30.045143)
13024,王献之,柯岩大道518号柯岩风景区,绍兴市,柯桥区,120.484413,30.045143,POINT (120.484413 30.045143)
13028,汤绍恩,柯岩大道518号柯岩风景区,绍兴市,柯桥区,120.484413,30.045143,POINT (120.484413 30.045143)
13029,陈建功,柯岩大道558号柯岩风景区,绍兴市,柯桥区,120.474564,30.046152,POINT (120.474564 30.046152)
13034,神马桥,柯岩大道518号柯岩风景区鉴湖景区五桥步月,绍兴市,柯桥区,120.484413,30.045143,POINT (120.484413 30.045143)
13039,含镜桥,柯岩大道558号柯岩风景区,绍兴市,柯桥区,120.475296,30.04475,POINT (120.475296 30.04475)
13041,越王勾践,柯岩大道518号柯岩风景区,绍兴市,柯桥区,120.484413,30.045143,POINT (120.484413 30.045143)
13045,奎文阁,一零四国道旁柯岩鲁镇,绍兴市,柯桥区,120.475082,30.044806,POINT (120.475082 30.044806)
13046,白玉长堤(古纤道),柯岩大道518号柯岩风景区鉴湖景区,绍兴市,柯桥区,120.484413,30.045143,POINT (120.484413 30.045143)
13047,土谷祠,柯岩大道558号柯岩风景区,绍兴市,柯桥区,120.476379,30.044504,POINT (120.476379 30.044504)
13050,投醪劳师,柯岩大道518号柯岩风景区鉴湖景区,绍兴市,柯桥区,120.484413,30.045143,POINT (120.484413 30.045143)
13052,越女采莲,柯岩大道518号柯岩风景区鉴湖景区五桥步月,绍兴市,柯桥区,120.484413,30.045143,POINT (120.484413 30.045143)
13053,钓鱼桥,柯岩大道518号柯岩风景区鉴湖景区五桥步月,绍兴市,柯桥区,120.484413,30.045143,POINT (120.484413 30.045143)
13054,鲁迅,柯岩大道558号柯岩风景区,绍兴市,柯桥区,120.474327,30.046465,POINT (120.474327 30.046465)
13057,杜浦桥,柯岩大道518号柯岩风景区鉴湖景区五桥步月,绍兴市,柯桥区,120.484413,30.045143,POINT (120.484413 30.045143)
13060,承德桥,柯岩大道558号柯岩风景区内,绍兴市,柯桥区,120.476173,30.044909,POINT (120.476173 30.044909)
13064,柯桥区国清庵,马鞍镇马鞍中学后门700米,绍兴市,柯桥区,120.594933,30.129801,POINT (120.594933 30.129801)
13073,葫芦醉岛,柯岩大道558号柯岩风景区,绍兴市,柯桥区,120.464073,30.048391,POINT (120.464073 30.048391)
13075,雀文阁,柯岩大道558号柯岩风景区,绍兴市,柯桥区,120.475098,30.044779,POINT (120.475098 30.044779)
13076,绍兴祝福馆,柯岩大道558号柯岩风景区,绍兴市,柯桥区,120.47673,30.045382,POINT (120.47673 30.045382)
13077,马臻,柯岩大道558号柯岩风景区,绍兴市,柯桥区,120.468399,30.04657,POINT (120.468399 30.04657)
13078,精神胜利法,柯岩大道558号柯岩风景区内,绍兴市,柯桥区,120.475761,30.045292,POINT (120.475761 30.045292)
13081,柯山桥,柯岩大道558号柯岩风景区,绍兴市,柯桥区,120.465103,30.048113,POINT (120.465103 30.048113)
13082,壶酒兴邦,柯岩大道558号柯岩风景区,绍兴市,柯桥区,120.464386,30.048609,POINT (120.464386 30.048609)
13083,壶觞楼,柯岩大道558号柯岩风景区,绍兴市,柯桥区,120.46418,30.049053,POINT (120.46418 30.049053)
13086,揽月榭,柯岩大道558号柯岩风景区,绍兴市,柯桥区,120.468681,30.047298,POINT (120.468681 30.047298)
13088,日月同辉台,柯岩大道558号柯岩风景区,绍兴市,柯桥区,120.474052,30.046947,POINT (120.474052 30.046947)
13089,观湖亭,柯岩大道558号柯岩风景区,绍兴市,柯桥区,120.465523,30.047558,POINT (120.465523 30.047558)
13091,望柯亭,柯岩大道558号柯岩风景区,绍兴市,柯桥区,120.473557,30.04616,POINT (120.473557 30.04616)
13093,会龙桥,柯岩大道558号柯岩风景区,绍兴市,柯桥区,120.464317,30.0481,POINT (120.464317 30.0481)
13094,停云馆,柯岩大道558号柯岩风景区,绍兴市,柯桥区,120.477867,30.044226,POINT (120.477867 30.044226)
13097,药师殿,柯岩大道558号柯岩风景区,绍兴市,柯桥区,120.479233,30.048344,POINT (120.479233 30.048344)
13098,老戏台,柯岩大道558号柯岩风景区内,绍兴市,柯桥区,120.476929,30.046013,POINT (120.476929 30.046013)
13099,镜湖,柯岩大道558号柯岩风景区,绍兴市,柯桥区,120.479698,30.043692,POINT (120.479698 30.043692)
13103,八仙桥,柯岩大道558号柯岩风景区,绍兴市,柯桥区,120.467735,30.047688,POINT (120.467735 30.047688)
13106,姚长子,柯岩大道558号柯岩风景区,绍兴市,柯桥区,120.473427,30.046396,POINT (120.473427 30.046396)
13108,葫芦醉岛,柯岩大道558号柯岩风景区,绍兴市,柯桥区,120.465668,30.047825,POINT (120.465668 30.047825)
13109,乌毡帽亭,柯岩大道518号柯岩风景区,绍兴市,柯桥区,120.476387,30.046656,POINT (120.476387 30.046656)
13110,柯岩风景区码头,柯岩大道558号柯岩风景区内,绍兴市,柯桥区,120.478127,30.044462,POINT (120.478127 30.044462)
13112,鲁迅《狂人日记》之狂人,柯岩大道558号柯岩风景区,绍兴市,柯桥区,120.474258,30.047089,POINT (120.474258 30.047089)
13113,步月亭,柯岩大道558号柯岩风景区,绍兴市,柯桥区,120.468376,30.046494,POINT (120.468376 30.046494)
13115,镜水桥,柯岩大道558号柯岩风景区,绍兴市,柯桥区,120.468941,30.047564,POINT (120.468941 30.047564)
13116,神马桥,柯岩大道558号柯岩风景区,绍兴市,柯桥区,120.468117,30.047476,POINT (120.468117 30.047476)
13119,赵之谦,柯岩大道558号柯岩风景区,绍兴市,柯桥区,120.474121,30.046286,POINT (120.474121 30.046286)
13120,笛亭,柯岩大道558号柯岩风景区,绍兴市,柯桥区,120.472397,30.047165,POINT (120.472397 30.047165)
13121,仰贤亭,柯岩大道558号柯岩风景区,绍兴市,柯桥区,120.474144,30.046768,POINT (120.474144 30.046768)
13125,调戏小尼姑,柯岩大道558号柯岩风景区,绍兴市,柯桥区,120.475845,30.044641,POINT (120.475845 30.044641)
13128,系锦桥,柯岩大道558号柯岩风景区,绍兴市,柯桥区,120.468002,30.047401,POINT (120.468002 30.047401)
13129,印山越国王陵(南门),兰亭镇印山,绍兴市,柯桥区,120.523537,29.9303,POINT (120.523537 29.9303)
13134,香林花雨风景区,湖塘街道岭下村,绍兴市,柯桥区,120.408409,30.029366,POINT (120.408409 30.029366)
13135,印山越国王陵,兰亭镇印山,绍兴市,柯桥区,120.518356,29.93351,POINT (120.518356 29.93351)
13137,陈洪绶墓,鉴湖镇官山岙横棚岭北麓,绍兴市,柯桥区,120.614006,29.931095,POINT (120.614006 29.931095)
13139,安昌古镇,安华北路,绍兴市,柯桥区,120.49659,30.135622,POINT (120.49659 30.135622)
13140,流翠湖,S24绍诸高速出口,绍兴市,柯桥区,120.513664,29.915501,POINT (120.513664 29.915501)
13142,物华天宝,柯桥街道笛扬路227,绍兴市,柯桥区,120.478615,30.066385,POINT (120.478615 30.066385)
13143,越王峥,来娘线,绍兴市,柯桥区,120.34198,30.090458,POINT (120.34198 30.090458)
13144,张老相公殿,经编路,绍兴市,柯桥区,120.349655,30.137589,POINT (120.349655 30.137589)
13150,羊山石佛,齐贤镇,绍兴市,柯桥区,120.543777,30.114662,POINT (120.543777 30.114662)
13151,豆雾尖,066乡道,绍兴市,柯桥区,120.455162,29.982143,POINT (120.455162 29.982143)
13153,中灶官山越窑,S24绍诸高速,绍兴市,柯桥区,120.646179,29.927509,POINT (120.646179 29.927509)
13154,峡山明清民居,秋瑾路,绍兴市,柯桥区,120.51638,29.975796,POINT (120.51638 29.975796)
13155,王守仁墓,021乡道附近,绍兴市,柯桥区,120.508331,29.903048,POINT (120.508331 29.903048)
13156,徐渭墓园,下白线,绍兴市,柯桥区,120.522331,29.931501,POINT (120.522331 29.931501)
13160,陈伯平故居,平水镇平水街与平兴路交叉口,绍兴市,柯桥区,120.625984,29.889414,POINT (120.625984 29.889414)
13161,会稽风景旅游区,32省道,绍兴市,柯桥区,120.61631,29.860573,POINT (120.61631 29.860573)
13163,清水亭,钱清镇钱清村,绍兴市,柯桥区,120.410919,30.115942,POINT (120.410919 30.115942)
13164,九岩越窑窑址,112县道,绍兴市,柯桥区,120.385811,30.095171,POINT (120.385811 30.095171)
13165,古纤道,鉴湖路1809号,绍兴市,柯桥区,120.444183,30.08704,POINT (120.444183 30.08704)
13166,窑灶头遗址,夏禹路,绍兴市,柯桥区,120.355431,30.063387,POINT (120.355431 30.063387)
13172,千年香榧林景区,011乡道,绍兴市,柯桥区,120.541969,29.741846,POINT (120.541969 29.741846)
13175,元帅殿,106县道,绍兴市,柯桥区,120.398392,30.099079,POINT (120.398392 30.099079)
13183,鉴湖柯岩旅游度假区管委会,柯岩街道州山104国道南复线以南柯岩大道以西,绍兴市,柯桥区,120.467171,30.029982,POINT (120.467171 30.029982)
13187,柯水长廊,柯桥街道,绍兴市,柯桥区,120.481239,30.07349,POINT (120.481239 30.07349)
13188,柯水园,笛扬路836号,绍兴市,柯桥区,120.483925,30.074842,POINT (120.483925 30.074842)
13192,三宝殿(东园),小方岩梅峰禅寺附近,绍兴市,柯桥区,120.50415,30.009838,POINT (120.50415 30.009838)
13194,香林风景区,香林西路附近,绍兴市,柯桥区,120.419807,30.02817,POINT (120.419807 30.02817)
13197,堆秀山,横店镇环城北路明清宫苑内,金华市,东阳市,120.301079,29.177006,POINT (120.301079 29.177006)
13204,白鹤殿,船外线,绍兴市,柯桥区,120.5578,29.864473,POINT (120.5578 29.864473)
13205,太宏宝殿,钱茅公路太平寺附近,绍兴市,柯桥区,120.40696,29.972334,POINT (120.40696 29.972334)
13209,云门古刹,阳何线,绍兴市,柯桥区,120.599533,29.87249,POINT (120.599533 29.87249)
13210,云门寺景区,平水镇平江村,绍兴市,柯桥区,120.60537,29.870796,POINT (120.60537 29.870796)
13216,樵柯遗址,060乡道,绍兴市,柯桥区,120.62677,29.808434,POINT (120.62677 29.808434)
13218,壶瓶山古文化遗址,107县道,绍兴市,柯桥区,120.547829,30.147038,POINT (120.547829 30.147038)
13220,瑞霭堂,康庄南街188号明清民居博览城内,金华市,东阳市,120.32943,29.142427,POINT (120.32943 29.142427)
13224,魏晋遗风,轻纺城大道附近,绍兴市,柯桥区,120.468094,30.071924,POINT (120.468094 30.071924)
13225,醉日亭,柯桥街道轻纺城大道,绍兴市,柯桥区,120.468781,30.07151,POINT (120.468781 30.07151)
13226,景龙门,横店镇秦清路清明上河图,金华市,东阳市,120.310364,29.141602,POINT (120.310364 29.141602)
13230,太子宫,横店影视城内,金华市,东阳市,120.319115,29.142118,POINT (120.319115 29.142118)
13232,永秀庵,柯桥街道杨汛桥镇,绍兴市,柯桥区,120.343964,30.11861,POINT (120.343964 30.11861)
13233,鹅池碑亭,兰亭镇308省道兰亭景区内,绍兴市,柯桥区,120.500717,29.927013,POINT (120.500717 29.927013)
13235,南东双庙,,绍兴市,柯桥区,120.410797,30.109194,POINT (120.410797 30.109194)
13236,王右军祠,兰亭镇308省道兰亭景区内,绍兴市,柯桥区,120.500343,29.927643,POINT (120.500343 29.927643)
13237,笔架峰寺,兰亭镇兰亭镇里木栅村,绍兴市,柯桥区,120.530159,29.927866,POINT (120.530159 29.927866)
13238,延寿寺,所前镇渔临关村,绍兴市,柯桥区,120.297722,30.111784,POINT (120.297722 30.111784)
13239,仙岩洞寺,仙岩洞路附近,绍兴市,柯桥区,120.375107,30.141823,POINT (120.375107 30.141823)
13240,太平禅寺,山联村306,绍兴市,柯桥区,120.300629,30.098627,POINT (120.300629 30.098627)
13241,普香寺,,绍兴市,柯桥区,120.386719,30.119429,POINT (120.386719 30.119429)
13242,青狮庵,,绍兴市,柯桥区,120.586647,30.130207,POINT (120.586647 30.130207)
13247,信可乐也亭,兰亭镇308省道兰亭景区内,绍兴市,柯桥区,120.49868,29.927732,POINT (120.49868 29.927732)
13251,张川禅寺,绸缎小区北门,绍兴市,柯桥区,120.4991,30.103001,POINT (120.4991 30.103001)
13252,紫苏古寺,杨绍公路附近,绍兴市,柯桥区,120.427589,30.059204,POINT (120.427589 30.059204)
13255,宝胜寺,柯华路附近,绍兴市,柯桥区,120.478661,30.087385,POINT (120.478661 30.087385)
13257,白鹤寺,杨汛桥合力村,绍兴市,柯桥区,120.359428,30.130325,POINT (120.359428 30.130325)
13258,玉皇庙,,绍兴市,柯桥区,120.624138,29.785557,POINT (120.624138 29.785557)
13267,羊山石城,环镇西路,绍兴市,柯桥区,120.535904,30.115129,POINT (120.535904 30.115129)
13268,前梅土地庙,032乡道附近,绍兴市,柯桥区,120.391861,30.119387,POINT (120.391861 30.119387)
13269,狂人府,柯岩大道558号柯岩风景区,绍兴市,柯桥区,120.475174,30.045471,POINT (120.475174 30.045471)
13270,钱塘江,柯海公路附近,绍兴市,柯桥区,120.713921,30.245295,POINT (120.713921 30.245295)
13272,秋瑾祖居陈列馆,福全镇梅山公路,绍兴市,柯桥区,120.497009,29.986778,POINT (120.497009 29.986778)
13273,师爷馆,安昌镇安昌古镇,绍兴市,柯桥区,120.48597,30.140026,POINT (120.48597 30.140026)
13275,天工大佛,柯岩大道558号柯岩风景区,绍兴市,柯桥区,120.47966,30.047337,POINT (120.47966 30.047337)
13276,越中名士苑,柯岩大道558号柯岩风景区,绍兴市,柯桥区,120.474747,30.046223,POINT (120.474747 30.046223)
13279,照壁,大智街87号大智禅寺内,金华市,东阳市,120.312515,29.148277,POINT (120.312515 29.148277)
13296,横店老街,横店镇秦清路梦幻谷,金华市,东阳市,120.317474,29.134701,POINT (120.317474 29.134701)
13310,沁露亭,诸葛镇诸葛八卦村百草生态园内,金华市,兰溪市,119.29953,29.244644,POINT (119.29953 29.244644)
13541,马迹山观港平台,菜马线附近,舟山市,嵊泗县,122.423073,30.677092,POINT (122.423073 30.677092)
13542,城门头,,舟山市,嵊泗县,122.428558,30.670656,POINT (122.428558 30.670656)
14180,嵊泗基湖沙滩,菜园镇,舟山市,嵊泗县,122.469978,30.713079,POINT (122.469978 30.713079)
14182,东海龙椅,五龙乡六井潭景区内,舟山市,嵊泗县,122.535004,30.720787,POINT (122.535004 30.720787)
14183,地藏殿,菜园镇基湖村老虎头,舟山市,嵊泗县,122.495094,30.704849,POINT (122.495094 30.704849)
14188,蟠龙潭,五龙乡六井潭景区内,舟山市,嵊泗县,122.534706,30.721527,POINT (122.534706 30.721527)
14189,龙隐洞,五龙乡六井潭景区内,舟山市,嵊泗县,122.53286,30.717857,POINT (122.53286 30.717857)
14190,鼓楼,大悲山景区灵音禅寺内,舟山市,嵊泗县,122.495415,30.704866,POINT (122.495415 30.704866)
14191,六井灯塔,五龙乡六井潭景区内,舟山市,嵊泗县,122.535583,30.720547,POINT (122.535583 30.720547)
14192,朝阳亭,和尚套景区内,舟山市,嵊泗县,122.537376,30.703354,POINT (122.537376 30.703354)
14193,灵音禅寺-阅经室,大悲山景区灵音禅寺内,舟山市,嵊泗县,122.495384,30.705091,POINT (122.495384 30.705091)
14194,基湖沙滩-海滩台阶处,基湖海滨浴场基湖沙滩内,舟山市,嵊泗县,122.476471,30.712317,POINT (122.476471 30.712317)
14195,沿海木栈道,东海渔村内,舟山市,嵊泗县,122.502144,30.706146,POINT (122.502144 30.706146)
14197,渔家荷塘,东海渔村内,舟山市,嵊泗县,122.50354,30.707212,POINT (122.50354 30.707212)
14198,六井仙潭,五龙乡六井潭景区内,舟山市,嵊泗县,122.535248,30.7211,POINT (122.535248 30.7211)
14199,和尚套景区,五龙乡,舟山市,嵊泗县,122.533859,30.701309,POINT (122.533859 30.701309)
14201,注焉不满,五龙乡六井潭景区内,舟山市,嵊泗县,122.533714,30.718031,POINT (122.533714 30.718031)
14202,飞龙潭,五龙乡六井潭景区内,舟山市,嵊泗县,122.535583,30.721245,POINT (122.535583 30.721245)
14204,潜龙潭,五龙乡六井潭景区内,舟山市,嵊泗县,122.535362,30.721413,POINT (122.535362 30.721413)
14205,玻璃观景平台,和尚套景区内,舟山市,嵊泗县,122.535164,30.702234,POINT (122.535164 30.702234)
14206,大悲山景区-观景平台,泗礁山岛东部田岙村大悲山景区内,舟山市,嵊泗县,122.49424,30.706432,POINT (122.49424 30.706432)
14208,玉佛殿,大悲山景区灵音禅寺内,舟山市,嵊泗县,122.495132,30.705095,POINT (122.495132 30.705095)
14209,天王殿,大悲山景区灵音禅寺内,舟山市,嵊泗县,122.495636,30.704863,POINT (122.495636 30.704863)
14210,洋山石龙景区-观日平台,五龙乡六井潭景区内,舟山市,嵊泗县,122.535744,30.720222,POINT (122.535744 30.720222)
14211,鉴真东渡,高五线附近,舟山市,嵊泗县,122.498123,30.704033,POINT (122.498123 30.704033)
14212,资福院,大悲山景区灵音禅寺内,舟山市,嵊泗县,122.495834,30.705324,POINT (122.495834 30.705324)
14213,瞰海观景点,基湖海滨浴场基湖沙滩内,舟山市,嵊泗县,122.482216,30.711052,POINT (122.482216 30.711052)
14215,伽蓝殿,大悲山景区灵音禅寺内,舟山市,嵊泗县,122.495102,30.704863,POINT (122.495102 30.704863)
14216,嵊泗海洋文化陈列馆,泗礁山岛东部田岙村大悲山景区内,舟山市,嵊泗县,122.494118,30.704859,POINT (122.494118 30.704859)
14218,大悲楼,大悲山景区灵音禅寺内,舟山市,嵊泗县,122.495117,30.704981,POINT (122.495117 30.704981)
14219,游龙潭,五龙乡六井潭景区内,舟山市,嵊泗县,122.535675,30.72085,POINT (122.535675 30.72085)
14220,兵洞探奇,五龙乡六井潭景区内,舟山市,嵊泗县,122.53492,30.721081,POINT (122.53492 30.721081)
14227,基湖海滩风景区,金沙路,舟山市,嵊泗县,122.477112,30.71213,POINT (122.477112 30.71213)
14229,嵊泗钓鱼台,青剑线附近,舟山市,嵊泗县,122.443207,30.742006,POINT (122.443207 30.742006)
14232,青沙渔俗风情馆,中大街24号,舟山市,嵊泗县,122.445915,30.740583,POINT (122.445915 30.740583)
14235,六井潭自然景区,五龙乡,舟山市,嵊泗县,122.533661,30.721355,POINT (122.533661 30.721355)
14236,碧海金沙,金沙路49号,舟山市,嵊泗县,122.469955,30.713413,POINT (122.469955 30.713413)
14240,小西天,枸杞乡枸杞岛北,舟山市,嵊泗县,122.779602,30.725533,POINT (122.779602 30.725533)
14243,嵊山枸杞景区,,舟山市,嵊泗县,122.771881,30.714897,POINT (122.771881 30.714897)
14244,山海奇观,列岛风景区枸杞岛,舟山市,嵊泗县,122.78157,30.70492,POINT (122.78157 30.70492)
14247,山海亭,嵊山枸杞景区内,舟山市,嵊泗县,122.781464,30.705034,POINT (122.781464 30.705034)
14248,山海奇观古炮台,嵊山枸杞景区内,舟山市,嵊泗县,122.781342,30.705528,POINT (122.781342 30.705528)
14280,猩猩石,小梅山内,舟山市,嵊泗县,122.076385,30.594313,POINT (122.076385 30.594313)
14281,雄狮迎宾,小梅山内,舟山市,嵊泗县,122.074539,30.594526,POINT (122.074539 30.594526)
14282,临港亭,小梅山内,舟山市,嵊泗县,122.074379,30.594376,POINT (122.074379 30.594376)
14283,巨人头骨,小梅山内,舟山市,嵊泗县,122.077866,30.594494,POINT (122.077866 30.594494)
14284,小梅山,,舟山市,嵊泗县,122.073479,30.594414,POINT (122.073479 30.594414)
14285,海豹石,小梅山内,舟山市,嵊泗县,122.075562,30.594467,POINT (122.075562 30.594467)
14286,东海念佛堂,,舟山市,嵊泗县,122.062889,30.586592,POINT (122.062889 30.586592)
14287,梅山亭,小梅山内,舟山市,嵊泗县,122.081337,30.59557,POINT (122.081337 30.59557)
14289,佛手石,花鸟岛内,舟山市,嵊泗县,122.693787,30.853003,POINT (122.693787 30.853003)
14290,古树群,花鸟岛内,舟山市,嵊泗县,122.678864,30.849154,POINT (122.678864 30.849154)
14359,三官堂,231省道附近,舟山市,定海区,122.15152,30.008837,POINT (122.15152 30.008837)
14362,三观讲堂,西大街195号,舟山市,定海区,122.102478,30.016598,POINT (122.102478 30.016598)
14367,四眼井,建国路34号,舟山市,定海区,122.103012,30.022861,POINT (122.103012 30.022861)
14368,马岙古文化遗址群,马岙镇,舟山市,定海区,122.091469,30.121511,POINT (122.091469 30.121511)
14369,三毛祖居,小沙镇庙桥陈家村,舟山市,定海区,122.06691,30.119049,POINT (122.06691 30.119049)
14371,双狮山烽火墩,陈家路,舟山市,定海区,122.002663,30.133751,POINT (122.002663 30.133751)
14372,包祖才墓,昌洲大道附近,舟山市,定海区,122.088379,30.034441,POINT (122.088379 30.034441)
14373,止善亭,定马线,舟山市,定海区,122.099892,30.086231,POINT (122.099892 30.086231)
14374,古客栈,定马线,舟山市,定海区,122.108971,30.134615,POINT (122.108971 30.134615)
14375,凉帽蓬墩遗址,马沙线,舟山市,定海区,122.090744,30.127886,POINT (122.090744 30.127886)
14376,甩龙桥,小沙镇,舟山市,定海区,122.064651,30.105413,POINT (122.064651 30.105413)
14377,复翁堂,小契线,舟山市,定海区,122.059532,30.118793,POINT (122.059532 30.118793)
14378,老碶烈士纪念碑,长洞线附近,舟山市,定海区,122.19812,30.006233,POINT (122.19812 30.006233)
14380,朱葆三墓,昌洲大道,舟山市,定海区,122.143539,30.01329,POINT (122.143539 30.01329)
14381,中共定海县工委旧址,三大线附近,舟山市,定海区,122.165993,29.998758,POINT (122.165993 29.998758)
14382,三总兵雕塑,兴舟大道99号,舟山市,定海区,122.085121,30.008371,POINT (122.085121 30.008371)
14388,同归域,陵园路附近,舟山市,定海区,122.102173,30.025421,POINT (122.102173 30.025421)
14393,磐石,环城南路198号,舟山市,定海区,122.103378,30.009668,POINT (122.103378 30.009668)
14396,张家老宅,蓬莱路5号,舟山市,定海区,122.108711,30.012102,POINT (122.108711 30.012102)
14398,青青世界,五四上段168号附近,舟山市,定海区,122.091347,30.108835,POINT (122.091347 30.108835)
14399,洋坦墩遗址,马沙线凉帽篷墩遗址公园附近,舟山市,定海区,122.090477,30.121958,POINT (122.090477 30.121958)
14404,林间胜地,平马线附近,舟山市,定海区,122.105988,30.107996,POINT (122.105988 30.107996)
14407,富甸园山庄,揽华路附近,舟山市,定海区,122.131615,30.129623,POINT (122.131615 30.129623)
14419,都神殿,都神殿东弄5号,舟山市,定海区,122.111839,30.016865,POINT (122.111839 30.016865)
14421,舟山市长岗山森林公园,蟠洋山路130弄88号,舟山市,定海区,122.120987,30.029676,POINT (122.120987 30.029676)
14428,天后宫,新港八道附近,舟山市,定海区,122.213562,30.090561,POINT (122.213562 30.090561)
14435,永青庵,青岙西路附近,舟山市,定海区,122.039864,30.121717,POINT (122.039864 30.121717)
14436,茶人谷生态旅游区,紫薇社区狭门村,舟山市,定海区,122.046654,30.082483,POINT (122.046654 30.082483)
14437,太阳谷,里陈138号,舟山市,定海区,122.138901,30.089136,POINT (122.138901 30.089136)
14439,清静讲寺,鸭东线附近,舟山市,定海区,122.005066,30.116844,POINT (122.005066 30.116844)
14440,太平宫,鹰新线附近,舟山市,定海区,122.135841,30.124088,POINT (122.135841 30.124088)
14441,吉祥禅寺,浙江,舟山市,定海区,122.068298,30.106779,POINT (122.068298 30.106779)
14442,风神庙,,舟山市,定海区,122.029701,30.000599,POINT (122.029701 30.000599)
14443,兴善寺,双桥镇,舟山市,定海区,122.0439,30.031157,POINT (122.0439 30.031157)
14445,里回峰寺,双桥镇狭门村,舟山市,定海区,122.052498,30.076103,POINT (122.052498 30.076103)
14446,小沙西庙,小契线和西何线的交叉口附近,舟山市,定海区,122.060829,30.12517,POINT (122.060829 30.12517)
14447,隆教禅寺,干平线,舟山市,定海区,122.129829,30.100786,POINT (122.129829 30.100786)
14448,梅仁寺,,舟山市,定海区,122.015709,30.093473,POINT (122.015709 30.093473)
14450,小沙大庙,小沙谭陈路161号,舟山市,定海区,122.059929,30.11442,POINT (122.059929 30.11442)
14451,老天福禅寺老东庙宫,双桥镇桥头施老天福禅寺,舟山市,定海区,122.032784,30.05138,POINT (122.032784 30.05138)
14452,化城禅寺,马沙线附近,舟山市,定海区,122.088509,30.133581,POINT (122.088509 30.133581)
14454,仙迹寺,,舟山市,定海区,122.197861,29.993038,POINT (122.197861 29.993038)
14457,三忠祠,竹山公园晓峰岭南岗墩,舟山市,定海区,122.085831,30.009132,POINT (122.085831 30.009132)
14464,观音庵,沥大线,舟山市,定海区,121.865852,30.021154,POINT (121.865852 30.021154)
14465,舟山册子月亮湾,册子乡门岙涂,舟山市,定海区,121.930901,30.068014,POINT (121.930901 30.068014)
14466,西堠门大桥风景旅游区,册子乡岙涂,舟山市,定海区,121.955444,30.099756,POINT (121.955444 30.099756)
14801,长白白马庙,,舟山市,定海区,122.040718,30.188684,POINT (122.040718 30.188684)
14805,舟山东海大峡谷,双桥镇紫薇乡狭门村,舟山市,定海区,122.046661,30.082479,POINT (122.046661 30.082479)
14815,海山增辉,环城北路32号,舟山市,定海区,122.102356,30.024101,POINT (122.102356 30.024101)
14821,古城翁洲书院,县前街5附近,舟山市,定海区,122.106583,30.019007,POINT (122.106583 30.019007)
15294,磨心山景区,岛东南部,舟山市,岱山县,122.204559,30.265961,POINT (122.204559 30.265961)
15295,石壁残照,岱西镇岱西镇双合,舟山市,岱山县,122.167862,30.31745,POINT (122.167862 30.31745)
15296,岱山风景名胜区,高亭镇山外路195号,舟山市,岱山县,122.181793,30.322779,POINT (122.181793 30.322779)
15297,大舜庙后墩遗址,南峰路,舟山市,岱山县,122.194908,30.288326,POINT (122.194908 30.288326)
15307,太平禅寺,017乡道附近,舟山市,岱山县,122.150574,30.305977,POINT (122.150574 30.305977)
15310,东沙古镇,解放路23号,舟山市,岱山县,122.145187,30.312914,POINT (122.145187 30.312914)
15311,石马庙,刘奇段附近,舟山市,岱山县,122.172791,30.268229,POINT (122.172791 30.268229)
15315,徐福会所,慈癞线附近,舟山市,岱山县,122.181862,30.250134,POINT (122.181862 30.250134)
15330,天灵塔,小岙路27附近,舟山市,岱山县,122.285889,30.452454,POINT (122.285889 30.452454)
15331,蓬莱慈,牛头山59号,舟山市,岱山县,122.294312,30.240526,POINT (122.294312 30.240526)
15446,九子沙滩,秀山岛海景大酒店,舟山市,岱山县,122.192139,30.17458,POINT (122.192139 30.17458)
15448,竹山庙,海兰线附近,舟山市,岱山县,122.158936,30.176943,POINT (122.158936 30.176943)
16208,上岭堂,,台州市,临海市,121.542618,28.81428,POINT (121.542618 28.81428)
16268,天受宫,大梅线附近,舟山市,普陀区,122.156532,29.724018,POINT (122.156532 29.724018)
16269,资福禅寺,,舟山市,普陀区,122.153732,29.697899,POINT (122.153732 29.697899)
16272,黄荆禅寺,六横皎头镇,舟山市,普陀区,122.116661,29.75901,POINT (122.116661 29.75901)
16307,清凉庵,镇府北路,舟山市,普陀区,122.25676,29.741476,POINT (122.25676 29.741476)
16314,天丰寺,泗湾路,舟山市,普陀区,122.304298,29.95225,POINT (122.304298 29.95225)
16320,沈家门渔港,滨港路,舟山市,普陀区,122.315002,29.943478,POINT (122.315002 29.943478)
16323,烈士塔,中兴路256号,舟山市,普陀区,122.31179,29.949675,POINT (122.31179 29.949675)
16328,星月洞,同山镇汤江岩内,绍兴市,诸暨市,120.103539,29.55241,POINT (120.103539 29.55241)
16335,吉祥禅院,勾山,舟山市,普陀区,122.261658,29.998943,POINT (122.261658 29.998943)
16341,朱家尖南沙,朱家尖镇南沙风景区,舟山市,普陀区,122.407074,29.877481,POINT (122.407074 29.877481)
16349,大佛岩,桃花岛大石头村,舟山市,普陀区,122.238243,29.83498,POINT (122.238243 29.83498)
16350,千步大沙,,舟山市,普陀区,122.296745,29.816162,POINT (122.296745 29.816162)
16352,冯氏墓,桃花镇桃花岛西北部大佛岩景区射雕英雄传旅游城黄药师庄内,舟山市,普陀区,122.245995,29.839025,POINT (122.245995 29.839025)
16353,八卦亭,桃花镇桃花岛桃花峪景区内,舟山市,普陀区,122.31002,29.806562,POINT (122.31002 29.806562)
16354,碧海潮生,桃花镇桃花岛桃花峪景区内,舟山市,普陀区,122.31102,29.806936,POINT (122.31102 29.806936)
16358,龙凰宫,桃花镇塔湾村安期峰风景区内,舟山市,普陀区,122.288589,29.809898,POINT (122.288589 29.809898)
16359,竹径逸园,桃花镇塔湾村安期峰风景区内,舟山市,普陀区,122.28804,29.807865,POINT (122.28804 29.807865)
16360,莲心桥,桃花镇塔湾村安期峰风景区内,舟山市,普陀区,122.288696,29.809759,POINT (122.288696 29.809759)
16361,安期石峰,桃花镇塔湾村安期峰风景区内,舟山市,普陀区,122.286407,29.799761,POINT (122.286407 29.799761)
16362,桃花溪,桃花镇塔湾村安期峰风景区内,舟山市,普陀区,122.286575,29.80932,POINT (122.286575 29.80932)
16363,神龟望海,桃花镇塔湾村安期峰风景区内,舟山市,普陀区,122.286255,29.799469,POINT (122.286255 29.799469)
16364,桃源坊,桃花镇桃花岛桃花峪景区内,舟山市,普陀区,122.308388,29.806242,POINT (122.308388 29.806242)
16366,桃花峪景区-观景台,桃花镇桃花岛桃花峪景区内,舟山市,普陀区,122.31105,29.80468,POINT (122.31105 29.80468)
16368,塔湾金沙景区-观景台,桃花岛东南部介于馒头山嘴与下石水岗之间塔湾金沙景区内,舟山市,普陀区,122.295097,29.813921,POINT (122.295097 29.813921)
16369,佛堂,桃花镇桃花岛西北部大佛岩景区射雕英雄传旅游城归云庄内,舟山市,普陀区,122.245995,29.839025,POINT (122.245995 29.839025)
16370,归云庄,桃花镇桃花岛西北部大佛岩景区射雕英雄传旅游城内,舟山市,普陀区,122.245995,29.839025,POINT (122.245995 29.839025)
16371,黄药师庄,桃花镇桃花岛西北部大佛岩景区射雕英雄传旅游城内,舟山市,普陀区,122.242332,29.837833,POINT (122.242332 29.837833)
16372,玉溪长廊,桃花镇塔湾村安期峰风景区内,舟山市,普陀区,122.288094,29.809324,POINT (122.288094 29.809324)
16373,炼珠洞,桃花镇桃花岛桃花峪景区内,舟山市,普陀区,122.307671,29.808853,POINT (122.307671 29.808853)
16374,桃花石趣,桃花镇塔湾村安期峰风景区内,舟山市,普陀区,122.286476,29.809422,POINT (122.286476 29.809422)
16375,杨铁心家,桃花镇桃花岛西北部大佛岩景区射雕英雄传旅游城内,舟山市,普陀区,122.245056,29.839523,POINT (122.245056 29.839523)
16376,祭天台,桃花镇塔湾村安期峰风景区内,舟山市,普陀区,122.286667,29.798979,POINT (122.286667 29.798979)
16377,八角亭,桃花镇桃花岛西北部大佛岩景区射雕英雄传旅游城归云庄内,舟山市,普陀区,122.241531,29.838732,POINT (122.241531 29.838732)
16378,试剑亭,桃花镇桃花岛桃花峪景区内,舟山市,普陀区,122.311127,29.80475,POINT (122.311127 29.80475)
16379,桃花港风景带-观景台,桃花镇桃花岛桃花港风景带内,舟山市,普陀区,122.265053,29.797621,POINT (122.265053 29.797621)
16380,红蚓飞瀑,桃花镇塔湾村安期峰风景区内,舟山市,普陀区,122.286919,29.809416,POINT (122.286919 29.809416)
16381,积翠亭,桃花镇桃花岛西北部大佛岩景区射雕英雄传旅游城内,舟山市,普陀区,122.244911,29.838514,POINT (122.244911 29.838514)
16382,灰姑娘薰衣草,桃花岛东南部介于馒头山嘴与下石水岗之间塔湾金沙景区内,舟山市,普陀区,122.293655,29.813211,POINT (122.293655 29.813211)
16383,悬璧栈道,桃花镇塔湾村安期峰风景区内,舟山市,普陀区,122.288727,29.809462,POINT (122.288727 29.809462)
16384,曲桥觞水,桃花镇桃花岛桃花峪景区内,舟山市,普陀区,122.30941,29.806505,POINT (122.30941 29.806505)
16385,黄蓉房,桃花镇桃花岛西北部大佛岩景区射雕英雄传旅游城黄药师庄内,舟山市,普陀区,122.245995,29.839025,POINT (122.245995 29.839025)
16386,跨越龙潭,桃花镇塔湾村安期峰风景区内,舟山市,普陀区,122.28801,29.809408,POINT (122.28801 29.809408)
16387,碧海楼,桃花镇桃花岛西北部大佛岩景区射雕英雄传旅游城黄药师庄内,舟山市,普陀区,122.245995,29.839025,POINT (122.245995 29.839025)
16388,神雕石,桃花镇桃花岛桃花峪景区内,舟山市,普陀区,122.307892,29.806585,POINT (122.307892 29.806585)
16389,香草谷,桃花镇塔湾村安期峰风景区内,舟山市,普陀区,122.287102,29.809544,POINT (122.287102 29.809544)
16390,万安塔,桃花镇塔湾村安期峰风景区内,舟山市,普陀区,122.288422,29.808872,POINT (122.288422 29.808872)
16391,红蚓潭,桃花镇塔湾村安期峰风景区内,舟山市,普陀区,122.286697,29.809456,POINT (122.286697 29.809456)
16392,莲花池,桃花镇塔湾村安期峰风景区内,舟山市,普陀区,122.289467,29.81011,POINT (122.289467 29.81011)
16393,龙女涧,桃花镇塔湾村安期峰风景区内,舟山市,普陀区,122.288162,29.807804,POINT (122.288162 29.807804)
16395,观澜亭,桃花镇桃花岛西北部大佛岩景区射雕英雄传旅游城归云庄内,舟山市,普陀区,122.245995,29.839025,POINT (122.245995 29.839025)
16396,紫丘桥,桃花岛东南部介于馒头山嘴与下石水岗之间塔湾金沙景区内,舟山市,普陀区,122.29464,29.813686,POINT (122.29464 29.813686)
16397,五湖居,桃花镇桃花岛西北部大佛岩景区射雕英雄传旅游城归云庄内,舟山市,普陀区,122.245995,29.839025,POINT (122.245995 29.839025)
16398,黄药师山庄,桃花镇桃花岛桃花峪景区内,舟山市,普陀区,122.309921,29.806538,POINT (122.309921 29.806538)
16399,听雨居,桃花镇桃花岛西北部大佛岩景区射雕英雄传旅游城内,舟山市,普陀区,122.245995,29.839025,POINT (122.245995 29.839025)
16401,八卦厅,桃花镇桃花岛西北部大佛岩景区射雕英雄传旅游城黄药师庄内,舟山市,普陀区,122.242401,29.837942,POINT (122.242401 29.837942)
16402,法国薰衣草,桃花岛东南部介于馒头山嘴与下石水岗之间塔湾金沙景区内,舟山市,普陀区,122.293297,29.814728,POINT (122.293297 29.814728)
16404,西班牙薰衣草,桃花岛东南部介于馒头山嘴与下石水岗之间塔湾金沙景区内,舟山市,普陀区,122.294403,29.811977,POINT (122.294403 29.811977)
16405,炼丹洞,桃花镇塔湾村安期峰风景区内,舟山市,普陀区,122.286552,29.798561,POINT (122.286552 29.798561)
16406,金庸文化园,桃花镇桃花岛西北部大佛岩景区射雕英雄传旅游城内,舟山市,普陀区,122.245491,29.839806,POINT (122.245491 29.839806)
16408,桃花诗涧,桃花镇桃花岛桃花峪景区内,舟山市,普陀区,122.30896,29.80652,POINT (122.30896 29.80652)
16409,一线天,桃花镇桃花岛西北部大佛岩景区内,舟山市,普陀区,122.238304,29.834917,POINT (122.238304 29.834917)
16410,心字石,桃花镇桃花岛桃花峪景区内,舟山市,普陀区,122.309898,29.808121,POINT (122.309898 29.808121)
16413,南帝禅寺,桃花镇桃花岛西北部大佛岩景区射雕英雄传旅游城内,舟山市,普陀区,122.244247,29.837118,POINT (122.244247 29.837118)
16414,桃花园,桃花镇桃花岛桃花峪景区内,舟山市,普陀区,122.307671,29.806448,POINT (122.307671 29.806448)
16415,翠香楼,桃花镇桃花岛西北部大佛岩景区射雕英雄传旅游城内,舟山市,普陀区,122.243042,29.838465,POINT (122.243042 29.838465)
16417,九阴白骨洞,桃花镇桃花岛桃花峪景区内,舟山市,普陀区,122.308548,29.806629,POINT (122.308548 29.806629)
16418,龙女阁,桃花镇塔湾村安期峰风景区内,舟山市,普陀区,122.28846,29.808474,POINT (122.28846 29.808474)
16419,桃花潭,桃花镇桃花岛桃花峪景区内,舟山市,普陀区,122.308067,29.806534,POINT (122.308067 29.806534)
16420,金庸像,桃花镇桃花岛西北部大佛岩景区射雕英雄传旅游城金庸文化园内,舟山市,普陀区,122.245453,29.839798,POINT (122.245453 29.839798)
16421,姐妹石,桃花镇塔湾村安期峰风景区内,舟山市,普陀区,122.287262,29.7992,POINT (122.287262 29.7992)
16422,别有洞天,桃花岛,舟山市,普陀区,122.28624,29.796013,POINT (122.28624 29.796013)
16423,东海龙珠,桃花岛,舟山市,普陀区,122.302635,29.809719,POINT (122.302635 29.809719)
16424,塔湾金沙景区,桃花岛东南部介于馒头山嘴与下石水岗之间,舟山市,普陀区,122.295921,29.816217,POINT (122.295921 29.816217)
16428,安期圣境,沙乌线,舟山市,普陀区,122.293213,29.81218,POINT (122.293213 29.81218)
16429,大佛岩景区,茅沙线,舟山市,普陀区,122.239838,29.828617,POINT (122.239838 29.828617)
16430,安期峰风景区,桃花镇塔湾村安期峰景区,舟山市,普陀区,122.284386,29.792131,POINT (122.284386 29.792131)
16432,新白鹤庙,庵跟路附近,舟山市,普陀区,122.286171,29.820328,POINT (122.286171 29.820328)
16433,舟山桃花岛风景旅游区,桃花岛公前街,舟山市,普陀区,122.28791,29.839851,POINT (122.28791 29.839851)
16435,观音望海,桃花岛,舟山市,普陀区,122.286514,29.798664,POINT (122.286514 29.798664)
16438,顶首庵,桃花岛公前街桃花岛风景区,舟山市,普陀区,122.240112,29.834276,POINT (122.240112 29.834276)
16439,弹指峰,桃花岛东南,舟山市,普陀区,122.310036,29.804747,POINT (122.310036 29.804747)
16443,东海神珠,桃花镇桃花岛桃花峪景区内,舟山市,普陀区,122.310081,29.807364,POINT (122.310081 29.807364)
16444,普陀区蚂蚁岛旅游区,蚂蚁岛乡,舟山市,普陀区,122.264603,29.872028,POINT (122.264603 29.872028)
16445,登步岛战斗纪念地,,舟山市,普陀区,122.30162,29.880127,POINT (122.30162 29.880127)
16447,忠和庙,,舟山市,普陀区,122.31398,29.859959,POINT (122.31398 29.859959)
16448,登步战斗纪念馆,,舟山市,普陀区,122.30162,29.880127,POINT (122.30162 29.880127)
16450,慧济禅寺,梅岑路115号普陀山,舟山市,普陀区,122.393089,30.015242,POINT (122.393089 30.015242)
16451,古佛洞,梅芩路115号普陀山,舟山市,普陀区,122.400917,30.011028,POINT (122.400917 30.011028)
