[
    {
        "Unnamed: 0": 998163,
        "NAME": "哥曼诗",
        "CITY": "宁波市",
        "COUNTY": "鄞州区",
        "LON": 121.54744,
        "LAT": 29.825979,
        "SUBTYPE": "餐饮相关场所",
        "geometry": "POINT (121.54744 29.825979)"
    },
    {
        "Unnamed: 0": 297769,
        "NAME": "曹记东北饺子",
        "CITY": "绍兴市",
        "COUNTY": "上虞区",
        "LON": 120.86705,
        "LAT": 30.004078,
        "SUBTYPE": "中餐厅",
        "geometry": "POINT (120.86705 30.004078)"
    },
    {
        "Unnamed: 0": 4404194,
        "NAME": "三江源拉面(金水西路)",
        "CITY": "宁波市",
        "COUNTY": "宁海县",
        "LON": 121.421677,
        "LAT": 29.321852,
        "SUBTYPE": "中餐厅",
        "geometry": "POINT (121.421677 29.321852)"
    },
    {
        "Unnamed: 0": 1005405,
        "NAME": "有一家快餐",
        "CITY": "宁波市",
        "COUNTY": "鄞州区",
        "LON": 121.538094,
        "LAT": 29.822449,
        "SUBTYPE": "中餐厅",
        "geometry": "POINT (121.538094 29.822449)"
    },
    {
        "Unnamed: 0": 1395147,
        "NAME": "兄妹麻辣烫",
        "CITY": "嘉兴市",
        "COUNTY": "南湖区",
        "LON": 120.831497,
        "LAT": 30.818848,
        "SUBTYPE": "中餐厅",
        "geometry": "POINT (120.831497 30.818848)"
    },
    {
        "Unnamed: 0": 2885724,
        "NAME": "都市人家",
        "CITY": "杭州市",
        "COUNTY": "临安市",
        "LON": 119.449646,
        "LAT": 30.309475,
        "SUBTYPE": "中餐厅",
        "geometry": "POINT (119.449646 30.309475)"
    },
    {
        "Unnamed: 0": 3250569,
        "NAME": "周记黑鸭(宇雷路店)",
        "CITY": "丽水市",
        "COUNTY": "莲都区",
        "LON": 119.927696,
        "LAT": 28.446075,
        "SUBTYPE": "中餐厅",
        "geometry": "POINT (119.927696 28.446075)"
    },
    {
        "Unnamed: 0": 4117708,
        "NAME": "SANWEIJU主题餐厅(西山总店)",
        "CITY": "温州市",
        "COUNTY": "瓯海区",
        "LON": 120.640907,
        "LAT": 27.994318,
        "SUBTYPE": "中餐厅",
        "geometry": "POINT (120.640907 27.994318)"
    },
    {
        "Unnamed: 0": 4337367,
        "NAME": "新茗鼎茶馆",
        "CITY": "湖州市",
        "COUNTY": "吴兴区",
        "LON": 120.096252,
        "LAT": 30.870886,
        "SUBTYPE": "茶艺馆",
        "geometry": "POINT (120.096252 30.870886)"
    },
    {
        "Unnamed: 0": 641089,
        "NAME": "72度私房蛋糕",
        "CITY": "台州市",
        "COUNTY": "椒江区",
        "LON": 121.452133,
        "LAT": 28.66045,
        "SUBTYPE": "糕饼店",
        "geometry": "POINT (121.452133 28.66045)"
    },
    {
        "Unnamed: 0": 2940834,
        "NAME": "Our home",
        "CITY": "杭州市",
        "COUNTY": "西湖区",
        "LON": 120.019402,
        "LAT": 30.212143,
        "SUBTYPE": "餐饮相关场所",
        "geometry": "POINT (120.019402 30.212143)"
    },
    {
        "Unnamed: 0": 2883161,
        "NAME": "新鹿园",
        "CITY": "杭州市",
        "COUNTY": "临安市",
        "LON": 119.823486,
        "LAT": 30.246649,
        "SUBTYPE": "中餐厅",
        "geometry": "POINT (119.823486 30.246649)"
    },
    {
        "Unnamed: 0": 928910,
        "NAME": "兰州正宗牛肉拉面(金山路)",
        "CITY": "宁波市",
        "COUNTY": "余姚市",
        "LON": 121.15889,
        "LAT": 30.065336,
        "SUBTYPE": "中餐厅",
        "geometry": "POINT (121.15889 30.065336)"
    },
    {
        "Unnamed: 0": 3210214,
        "NAME": "我的聚会餐厅",
        "CITY": "温州市",
        "COUNTY": "瓯海区",
        "LON": 120.709618,
        "LAT": 27.918291,
        "SUBTYPE": "中餐厅",
        "geometry": "POINT (120.709618 27.918291)"
    },
    {
        "Unnamed: 0": 3367752,
        "NAME": "威哥土菜馆",
        "CITY": "金华市",
        "COUNTY": "东阳市",
        "LON": 120.32309,
        "LAT": 29.148685,
        "SUBTYPE": "中餐厅",
        "geometry": "POINT (120.32309 29.148685)"
    },
    {
        "Unnamed: 0": 4338847,
        "NAME": "傻哥川菜",
        "CITY": "湖州市",
        "COUNTY": "南浔区",
        "LON": 120.398903,
        "LAT": 30.710331,
        "SUBTYPE": "中餐厅",
        "geometry": "POINT (120.398903 30.710331)"
    },
    {
        "Unnamed: 0": 3827240,
        "NAME": "司膳司鲜香工坊",
        "CITY": "金华市",
        "COUNTY": "永康市",
        "LON": 120.050568,
        "LAT": 28.887968,
        "SUBTYPE": "中餐厅",
        "geometry": "POINT (120.050568 28.887968)"
    },
    {
        "Unnamed: 0": 462012,
        "NAME": "见国饭店",
        "CITY": "嘉兴市",
        "COUNTY": "海宁市",
        "LON": 120.506203,
        "LAT": 30.444435,
        "SUBTYPE": "中餐厅",
        "geometry": "POINT (120.506203 30.444435)"
    },
    {
        "Unnamed: 0": 1791556,
        "NAME": "石烹烤鱼",
        "CITY": "宁波市",
        "COUNTY": "海曙区",
        "LON": 121.527542,
        "LAT": 29.862267,
        "SUBTYPE": "中餐厅",
        "geometry": "POINT (121.527542 29.862267)"
    },
    {
        "Unnamed: 0": 2324045,
        "NAME": "全家福烧烤(金家渡分店)",
        "CITY": "杭州市",
        "COUNTY": "余杭区",
        "LON": 120.093002,
        "LAT": 30.339161,
        "SUBTYPE": "中餐厅",
        "geometry": "POINT (120.093002 30.339161)"
    },
    {
        "Unnamed: 0": 1549891,
        "NAME": "艾比客汉堡炸鸡(施家坟北)",
        "CITY": "嘉兴市",
        "COUNTY": "平湖市",
        "LON": 121.014938,
        "LAT": 30.701752,
        "SUBTYPE": "快餐厅",
        "geometry": "POINT (121.014938 30.701752)"
    },
    {
        "Unnamed: 0": 2613462,
        "NAME": "杭州国际假日酒店西餐厅",
        "CITY": "杭州市",
        "COUNTY": "下城区",
        "LON": 120.180214,
        "LAT": 30.265753,
        "SUBTYPE": "中餐厅",
        "geometry": "POINT (120.180214 30.265753)"
    },
    {
        "Unnamed: 0": 3272952,
        "NAME": "天赐福",
        "CITY": "温州市",
        "COUNTY": "龙湾区",
        "LON": 120.742317,
        "LAT": 27.971418,
        "SUBTYPE": "中餐厅",
        "geometry": "POINT (120.742317 27.971418)"
    },
    {
        "Unnamed: 0": 4613918,
        "NAME": "沙县小吃(会展西路)",
        "CITY": "台州市",
        "COUNTY": "路桥区",
        "LON": 121.370003,
        "LAT": 28.588636,
        "SUBTYPE": "中餐厅",
        "geometry": "POINT (121.370003 28.588636)"
    },
    {
        "Unnamed: 0": 1114,
        "NAME": "面.疙瘩松门店",
        "CITY": "台州市",
        "COUNTY": "温岭市",
        "LON": 121.602112,
        "LAT": 28.340933,
        "SUBTYPE": "快餐厅",
        "geometry": "POINT (121.602112 28.340933)"
    },
    {
        "Unnamed: 0": 4036674,
        "NAME": "思军饭店",
        "CITY": "温州市",
        "COUNTY": "平阳县",
        "LON": 120.556816,
        "LAT": 27.66643,
        "SUBTYPE": "中餐厅",
        "geometry": "POINT (120.556816 27.66643)"
    },
    {
        "Unnamed: 0": 1793728,
        "NAME": "味千拉面(宁波药行店)",
        "CITY": "宁波市",
        "COUNTY": "海曙区",
        "LON": 121.552307,
        "LAT": 29.867962,
        "SUBTYPE": "快餐厅",
        "geometry": "POINT (121.552307 29.867962)"
    },
    {
        "Unnamed: 0": 2007561,
        "NAME": "东方快餐(银河路)",
        "CITY": "宁波市",
        "COUNTY": "宁海县",
        "LON": 121.438736,
        "LAT": 29.309168,
        "SUBTYPE": "中餐厅",
        "geometry": "POINT (121.438736 29.309168)"
    },
    {
        "Unnamed: 0": 4148427,
        "NAME": "明胜烧鸭面馆",
        "CITY": "温州市",
        "COUNTY": "瑞安市",
        "LON": 120.691353,
        "LAT": 27.830091,
        "SUBTYPE": "中餐厅",
        "geometry": "POINT (120.691353 27.830091)"
    },
    {
        "Unnamed: 0": 4121911,
        "NAME": "八方客快餐店",
        "CITY": "温州市",
        "COUNTY": "鹿城区",
        "LON": 120.709335,
        "LAT": 27.995499,
        "SUBTYPE": "中餐厅",
        "geometry": "POINT (120.709335 27.995499)"
    },
    {
        "Unnamed: 0": 3139146,
        "NAME": "老四川(长城西大道辅路)",
        "CITY": "金华市",
        "COUNTY": "永康市",
        "LON": 120.06562,
        "LAT": 28.900934,
        "SUBTYPE": "中餐厅",
        "geometry": "POINT (120.06562 28.900934)"
    },
    {
        "Unnamed: 0": 441417,
        "NAME": "慧佳馄饨",
        "CITY": "嘉兴市",
        "COUNTY": "海宁市",
        "LON": 120.551125,
        "LAT": 30.452366,
        "SUBTYPE": "中餐厅",
        "geometry": "POINT (120.551125 30.452366)"
    },
    {
        "Unnamed: 0": 1389674,
        "NAME": "星巴克咖啡(万达店)",
        "CITY": "嘉兴市",
        "COUNTY": "南湖区",
        "LON": 120.801826,
        "LAT": 30.736095,
        "SUBTYPE": "咖啡厅",
        "geometry": "POINT (120.801826 30.736095)"
    },
    {
        "Unnamed: 0": 2942581,
        "NAME": "思味儿蛋糕(教工路店)",
        "CITY": "杭州市",
        "COUNTY": "西湖区",
        "LON": 120.135742,
        "LAT": 30.284559,
        "SUBTYPE": "糕饼店",
        "geometry": "POINT (120.135742 30.284559)"
    },
    {
        "Unnamed: 0": 1520518,
        "NAME": "项村饭店",
        "CITY": "杭州市",
        "COUNTY": "萧山区",
        "LON": 120.397301,
        "LAT": 30.16411,
        "SUBTYPE": "中餐厅",
        "geometry": "POINT (120.397301 30.16411)"
    },
    {
        "Unnamed: 0": 2936699,
        "NAME": "感觉萌萌哒",
        "CITY": "杭州市",
        "COUNTY": "西湖区",
        "LON": 120.090172,
        "LAT": 30.312176,
        "SUBTYPE": "快餐厅",
        "geometry": "POINT (120.090172 30.312176)"
    },
    {
        "Unnamed: 0": 1493496,
        "NAME": "龙湖面菜食府川味土菜",
        "CITY": "杭州市",
        "COUNTY": "余杭区",
        "LON": 120.034706,
        "LAT": 30.242085,
        "SUBTYPE": "中餐厅",
        "geometry": "POINT (120.034706 30.242085)"
    },
    {
        "Unnamed: 0": 4144279,
        "NAME": "金乡沈氏猪蹄",
        "CITY": "温州市",
        "COUNTY": "苍南县",
        "LON": 120.608871,
        "LAT": 27.432791,
        "SUBTYPE": "餐饮相关场所",
        "geometry": "POINT (120.608871 27.432791)"
    },
    {
        "Unnamed: 0": 1867095,
        "NAME": "开心酒家",
        "CITY": "衢州市",
        "COUNTY": "龙游县",
        "LON": 119.173569,
        "LAT": 29.026127,
        "SUBTYPE": "中餐厅",
        "geometry": "POINT (119.173569 29.026127)"
    },
    {
        "Unnamed: 0": 23409,
        "NAME": "他她咖啡(通惠中路)",
        "CITY": "杭州市",
        "COUNTY": "萧山区",
        "LON": 120.285515,
        "LAT": 30.165855,
        "SUBTYPE": "咖啡厅",
        "geometry": "POINT (120.285515 30.165855)"
    },
    {
        "Unnamed: 0": 3057941,
        "NAME": "北京太子烧饼店",
        "CITY": "金华市",
        "COUNTY": "义乌市",
        "LON": 120.062851,
        "LAT": 29.298649,
        "SUBTYPE": "餐饮相关场所",
        "geometry": "POINT (120.062851 29.298649)"
    },
    {
        "Unnamed: 0": 4128234,
        "NAME": "阿辉湖岭牛排",
        "CITY": "温州市",
        "COUNTY": "龙湾区",
        "LON": 120.819893,
        "LAT": 27.92005,
        "SUBTYPE": "外国餐厅",
        "geometry": "POINT (120.819893 27.92005)"
    },
    {
        "Unnamed: 0": 2625903,
        "NAME": "菜卤豆腐",
        "CITY": "杭州市",
        "COUNTY": "上城区",
        "LON": 120.170525,
        "LAT": 30.234993,
        "SUBTYPE": "中餐厅",
        "geometry": "POINT (120.170525 30.234993)"
    },
    {
        "Unnamed: 0": 541065,
        "NAME": "贵宾楼酒家",
        "CITY": "丽水市",
        "COUNTY": "莲都区",
        "LON": 119.785278,
        "LAT": 28.341072,
        "SUBTYPE": "中餐厅",
        "geometry": "POINT (119.785278 28.341072)"
    },
    {
        "Unnamed: 0": 4148360,
        "NAME": "桥头排骨(虹橘路店)",
        "CITY": "温州市",
        "COUNTY": "瑞安市",
        "LON": 120.632706,
        "LAT": 27.777361,
        "SUBTYPE": "餐饮相关场所",
        "geometry": "POINT (120.632706 27.777361)"
    },
    {
        "Unnamed: 0": 2324882,
        "NAME": "锦记面馆",
        "CITY": "杭州市",
        "COUNTY": "余杭区",
        "LON": 120.166565,
        "LAT": 30.381094,
        "SUBTYPE": "中餐厅",
        "geometry": "POINT (120.166565 30.381094)"
    },
    {
        "Unnamed: 0": 2937001,
        "NAME": "赵记小炒",
        "CITY": "杭州市",
        "COUNTY": "西湖区",
        "LON": 120.096725,
        "LAT": 30.278027,
        "SUBTYPE": "中餐厅",
        "geometry": "POINT (120.096725 30.278027)"
    },
    {
        "Unnamed: 0": 2918106,
        "NAME": "来仕堡(衣之家百货城东店)",
        "CITY": "杭州市",
        "COUNTY": "江干区",
        "LON": 120.200523,
        "LAT": 30.287481,
        "SUBTYPE": "快餐厅",
        "geometry": "POINT (120.200523 30.287481)"
    },
    {
        "Unnamed: 0": 4779339,
        "NAME": "御茶道",
        "CITY": "台州市",
        "COUNTY": "黄岩区",
        "LON": 121.258392,
        "LAT": 28.631735,
        "SUBTYPE": "茶艺馆",
        "geometry": "POINT (121.258392 28.631735)"
    },
    {
        "Unnamed: 0": 2956376,
        "NAME": "同一号少私府",
        "CITY": "杭州市",
        "COUNTY": "西湖区",
        "LON": 120.092392,
        "LAT": 30.291473,
        "SUBTYPE": "咖啡厅",
        "geometry": "POINT (120.092392 30.291473)"
    },
    {
        "Unnamed: 0": 3349478,
        "NAME": "肯德基(解百店)",
        "CITY": "金华市",
        "COUNTY": "义乌市",
        "LON": 120.076866,
        "LAT": 29.30274,
        "SUBTYPE": "快餐厅",
        "geometry": "POINT (120.076866 29.30274)"
    },
    {
        "Unnamed: 0": 1005588,
        "NAME": "稻米飘香台湾饭团奶香作坊",
        "CITY": "宁波市",
        "COUNTY": "海曙区",
        "LON": 121.466881,
        "LAT": 29.903465,
        "SUBTYPE": "中餐厅",
        "geometry": "POINT (121.466881 29.903465)"
    },
    {
        "Unnamed: 0": 299882,
        "NAME": "红山蒸菜馆",
        "CITY": "绍兴市",
        "COUNTY": "诸暨市",
        "LON": 120.34552,
        "LAT": 29.92627,
        "SUBTYPE": "中餐厅",
        "geometry": "POINT (120.34552 29.92627)"
    },
    {
        "Unnamed: 0": 2925620,
        "NAME": "四川嘉州紫燕百味鸡(顾家畈路)",
        "CITY": "杭州市",
        "COUNTY": "江干区",
        "LON": 120.191078,
        "LAT": 30.292904,
        "SUBTYPE": "快餐厅",
        "geometry": "POINT (120.191078 30.292904)"
    },
    {
        "Unnamed: 0": 927202,
        "NAME": "江南葡萄农庄",
        "CITY": "宁波市",
        "COUNTY": "余姚市",
        "LON": 120.962601,
        "LAT": 30.152374,
        "SUBTYPE": "中餐厅",
        "geometry": "POINT (120.962601 30.152374)"
    },
    {
        "Unnamed: 0": 2931014,
        "NAME": "茶物语",
        "CITY": "杭州市",
        "COUNTY": "萧山区",
        "LON": 120.274689,
        "LAT": 30.194023,
        "SUBTYPE": "冷饮店",
        "geometry": "POINT (120.274689 30.194023)"
    },
    {
        "Unnamed: 0": 2007454,
        "NAME": "天台小吃",
        "CITY": "宁波市",
        "COUNTY": "宁海县",
        "LON": 121.460297,
        "LAT": 29.347029,
        "SUBTYPE": "中餐厅",
        "geometry": "POINT (121.460297 29.347029)"
    },
    {
        "Unnamed: 0": 4122175,
        "NAME": "正宗平阳炒粉子",
        "CITY": "温州市",
        "COUNTY": "鹿城区",
        "LON": 120.686913,
        "LAT": 28.01092,
        "SUBTYPE": "中餐厅",
        "geometry": "POINT (120.686913 28.01092)"
    },
    {
        "Unnamed: 0": 2916148,
        "NAME": "圆平速食",
        "CITY": "杭州市",
        "COUNTY": "江干区",
        "LON": 120.377167,
        "LAT": 30.29937,
        "SUBTYPE": "中餐厅",
        "geometry": "POINT (120.377167 30.29937)"
    },
    {
        "Unnamed: 0": 278809,
        "NAME": "古街小院菜馆",
        "CITY": "台州市",
        "COUNTY": "临海市",
        "LON": 121.116402,
        "LAT": 28.845772,
        "SUBTYPE": "中餐厅",
        "geometry": "POINT (121.116402 28.845772)"
    },
    {
        "Unnamed: 0": 1794582,
        "NAME": "一号线川味馆(老蜀人鼓楼店)",
        "CITY": "宁波市",
        "COUNTY": "海曙区",
        "LON": 121.547737,
        "LAT": 29.874435,
        "SUBTYPE": "中餐厅",
        "geometry": "POINT (121.547737 29.874435)"
    },
    {
        "Unnamed: 0": 4155614,
        "NAME": "东北饺子馆",
        "CITY": "温州市",
        "COUNTY": "苍南县",
        "LON": 120.548874,
        "LAT": 27.576859,
        "SUBTYPE": "中餐厅",
        "geometry": "POINT (120.548874 27.576859)"
    },
    {
        "Unnamed: 0": 2918798,
        "NAME": "乐清湾海鲜楼",
        "CITY": "杭州市",
        "COUNTY": "江干区",
        "LON": 120.272629,
        "LAT": 30.31769,
        "SUBTYPE": "中餐厅",
        "geometry": "POINT (120.272629 30.31769)"
    },
    {
        "Unnamed: 0": 1388670,
        "NAME": "二毛水煮鱼",
        "CITY": "嘉兴市",
        "COUNTY": "秀洲区",
        "LON": 120.732071,
        "LAT": 30.774761,
        "SUBTYPE": "中餐厅",
        "geometry": "POINT (120.732071 30.774761)"
    },
    {
        "Unnamed: 0": 2938580,
        "NAME": "小烧货港式烧味饭(影业路店)",
        "CITY": "杭州市",
        "COUNTY": "西湖区",
        "LON": 120.133537,
        "LAT": 30.277754,
        "SUBTYPE": "中餐厅",
        "geometry": "POINT (120.133537 30.277754)"
    },
    {
        "Unnamed: 0": 1390994,
        "NAME": "元祖食品(禾兴店)",
        "CITY": "嘉兴市",
        "COUNTY": "南湖区",
        "LON": 120.747169,
        "LAT": 30.773592,
        "SUBTYPE": "糕饼店",
        "geometry": "POINT (120.747169 30.773592)"
    },
    {
        "Unnamed: 0": 3370358,
        "NAME": "百纳福排骨米饭(东阳店)",
        "CITY": "金华市",
        "COUNTY": "东阳市",
        "LON": 120.227425,
        "LAT": 29.265415,
        "SUBTYPE": "中餐厅",
        "geometry": "POINT (120.227425 29.265415)"
    },
    {
        "Unnamed: 0": 3349523,
        "NAME": "德友火锅",
        "CITY": "金华市",
        "COUNTY": "义乌市",
        "LON": 120.026207,
        "LAT": 29.205385,
        "SUBTYPE": "中餐厅",
        "geometry": "POINT (120.026207 29.205385)"
    },
    {
        "Unnamed: 0": 2295567,
        "NAME": "佳佳香辣馆",
        "CITY": "杭州市",
        "COUNTY": "滨江区",
        "LON": 120.203789,
        "LAT": 30.192205,
        "SUBTYPE": "中餐厅",
        "geometry": "POINT (120.203789 30.192205)"
    },
    {
        "Unnamed: 0": 4120255,
        "NAME": "清心堂功效凉茶",
        "CITY": "温州市",
        "COUNTY": "鹿城区",
        "LON": 120.64299,
        "LAT": 28.007271,
        "SUBTYPE": "冷饮店",
        "geometry": "POINT (120.64299 28.007271)"
    },
    {
        "Unnamed: 0": 2603469,
        "NAME": "馄饨世家",
        "CITY": "杭州市",
        "COUNTY": "上城区",
        "LON": 120.174995,
        "LAT": 30.253698,
        "SUBTYPE": "中餐厅",
        "geometry": "POINT (120.174995 30.253698)"
    },
    {
        "Unnamed: 0": 2963235,
        "NAME": "安徽菜馆(祥兴路)",
        "CITY": "杭州市",
        "COUNTY": "拱墅区",
        "LON": 120.111107,
        "LAT": 30.332226,
        "SUBTYPE": "中餐厅",
        "geometry": "POINT (120.111107 30.332226)"
    },
    {
        "Unnamed: 0": 1987446,
        "NAME": "聚友土菜馆(八字桥路)",
        "CITY": "宁波市",
        "COUNTY": "慈溪市",
        "LON": 121.275246,
        "LAT": 30.161528,
        "SUBTYPE": "中餐厅",
        "geometry": "POINT (121.275246 30.161528)"
    },
    {
        "Unnamed: 0": 2323538,
        "NAME": "飞越酒家",
        "CITY": "杭州市",
        "COUNTY": "余杭区",
        "LON": 120.187309,
        "LAT": 30.473068,
        "SUBTYPE": "中餐厅",
        "geometry": "POINT (120.187309 30.473068)"
    },
    {
        "Unnamed: 0": 1896098,
        "NAME": "客来源土菜馆",
        "CITY": "衢州市",
        "COUNTY": "柯城区",
        "LON": 118.894058,
        "LAT": 28.942284,
        "SUBTYPE": "中餐厅",
        "geometry": "POINT (118.894058 28.942284)"
    },
    {
        "Unnamed: 0": 2963218,
        "NAME": "衢州土菜馆(祥宏路)",
        "CITY": "杭州市",
        "COUNTY": "拱墅区",
        "LON": 120.106117,
        "LAT": 30.33437,
        "SUBTYPE": "中餐厅",
        "geometry": "POINT (120.106117 30.33437)"
    },
    {
        "Unnamed: 0": 1992623,
        "NAME": "肯德基(青少年宫餐厅)",
        "CITY": "宁波市",
        "COUNTY": "慈溪市",
        "LON": 121.250305,
        "LAT": 30.173868,
        "SUBTYPE": "快餐厅",
        "geometry": "POINT (121.250305 30.173868)"
    },
    {
        "Unnamed: 0": 194287,
        "NAME": "恋奶茶",
        "CITY": "杭州市",
        "COUNTY": "拱墅区",
        "LON": 120.144501,
        "LAT": 30.309364,
        "SUBTYPE": "冷饮店",
        "geometry": "POINT (120.144501 30.309364)"
    },
    {
        "Unnamed: 0": 4128228,
        "NAME": "老湘好(永丰家园店)",
        "CITY": "温州市",
        "COUNTY": "龙湾区",
        "LON": 120.812782,
        "LAT": 27.868059,
        "SUBTYPE": "中餐厅",
        "geometry": "POINT (120.812782 27.868059)"
    },
    {
        "Unnamed: 0": 4322199,
        "NAME": "老娘舅(站前路)",
        "CITY": "湖州市",
        "COUNTY": "吴兴区",
        "LON": 120.023392,
        "LAT": 30.862976,
        "SUBTYPE": "中餐厅",
        "geometry": "POINT (120.023392 30.862976)"
    },
    {
        "Unnamed: 0": 44870,
        "NAME": "常山服务区大麻子",
        "CITY": "衢州市",
        "COUNTY": "常山县",
        "LON": 118.462341,
        "LAT": 28.912413,
        "SUBTYPE": "中餐厅",
        "geometry": "POINT (118.462341 28.912413)"
    },
    {
        "Unnamed: 0": 996567,
        "NAME": "美子的快乐生活",
        "CITY": "宁波市",
        "COUNTY": "鄞州区",
        "LON": 121.572983,
        "LAT": 29.836689,
        "SUBTYPE": "糕饼店",
        "geometry": "POINT (121.572983 29.836689)"
    },
    {
        "Unnamed: 0": 87203,
        "NAME": "夜猫子烧烤店",
        "CITY": "嘉兴市",
        "COUNTY": "嘉善县",
        "LON": 120.907623,
        "LAT": 30.840326,
        "SUBTYPE": "餐饮相关场所",
        "geometry": "POINT (120.907623 30.840326)"
    },
    {
        "Unnamed: 0": 280234,
        "NAME": "星乐尤溪牛肉",
        "CITY": "台州市",
        "COUNTY": "临海市",
        "LON": 121.135025,
        "LAT": 28.841366,
        "SUBTYPE": "中餐厅",
        "geometry": "POINT (121.135025 28.841366)"
    },
    {
        "Unnamed: 0": 2324567,
        "NAME": "新骆家大院",
        "CITY": "杭州市",
        "COUNTY": "余杭区",
        "LON": 120.096741,
        "LAT": 30.377686,
        "SUBTYPE": "中餐厅",
        "geometry": "POINT (120.096741 30.377686)"
    },
    {
        "Unnamed: 0": 4127553,
        "NAME": "好多味拉面馆",
        "CITY": "温州市",
        "COUNTY": "文成县",
        "LON": 120.096825,
        "LAT": 27.784178,
        "SUBTYPE": "中餐厅",
        "geometry": "POINT (120.096825 27.784178)"
    },
    {
        "Unnamed: 0": 311847,
        "NAME": "沙县小吃(太平路)",
        "CITY": "绍兴市",
        "COUNTY": "柯桥区",
        "LON": 120.467117,
        "LAT": 30.095989,
        "SUBTYPE": "中餐厅",
        "geometry": "POINT (120.467117 30.095989)"
    },
    {
        "Unnamed: 0": 4133910,
        "NAME": "哥俩好饭庄",
        "CITY": "温州市",
        "COUNTY": "鹿城区",
        "LON": 120.583603,
        "LAT": 28.032564,
        "SUBTYPE": "中餐厅",
        "geometry": "POINT (120.583603 28.032564)"
    },
    {
        "Unnamed: 0": 4155789,
        "NAME": "福鼎风味",
        "CITY": "温州市",
        "COUNTY": "苍南县",
        "LON": 120.528412,
        "LAT": 27.472765,
        "SUBTYPE": "中餐厅",
        "geometry": "POINT (120.528412 27.472765)"
    },
    {
        "Unnamed: 0": 442096,
        "NAME": "小章羊肉米线店",
        "CITY": "嘉兴市",
        "COUNTY": "海宁市",
        "LON": 120.688889,
        "LAT": 30.532084,
        "SUBTYPE": "中餐厅",
        "geometry": "POINT (120.688889 30.532084)"
    },
    {
        "Unnamed: 0": 3067691,
        "NAME": "北方馒头",
        "CITY": "金华市",
        "COUNTY": "义乌市",
        "LON": 120.052193,
        "LAT": 29.337549,
        "SUBTYPE": "餐饮相关场所",
        "geometry": "POINT (120.052193 29.337549)"
    },
    {
        "Unnamed: 0": 2014261,
        "NAME": "淮南牛肉面",
        "CITY": "宁波市",
        "COUNTY": "北仑区",
        "LON": 121.916161,
        "LAT": 29.87463,
        "SUBTYPE": "中餐厅",
        "geometry": "POINT (121.916161 29.87463)"
    },
    {
        "Unnamed: 0": 2881909,
        "NAME": "绝味鸭脖(锦江路店)",
        "CITY": "杭州市",
        "COUNTY": "临安区",
        "LON": 119.711189,
        "LAT": 30.231136,
        "SUBTYPE": "餐饮相关场所",
        "geometry": "POINT (119.711189 30.231136)"
    },
    {
        "Unnamed: 0": 52709,
        "NAME": "名爵牛排",
        "CITY": "台州市",
        "COUNTY": "温岭市",
        "LON": 121.370636,
        "LAT": 28.366577,
        "SUBTYPE": "外国餐厅",
        "geometry": "POINT (121.370636 28.366577)"
    },
    {
        "Unnamed: 0": 1025647,
        "NAME": "全统永和豆浆(人民中路)",
        "CITY": "台州市",
        "COUNTY": "温岭市",
        "LON": 121.375595,
        "LAT": 28.367666,
        "SUBTYPE": "快餐厅",
        "geometry": "POINT (121.375595 28.367666)"
    },
    {
        "Unnamed: 0": 3209762,
        "NAME": "雪诺小吃",
        "CITY": "温州市",
        "COUNTY": "龙湾区",
        "LON": 120.788994,
        "LAT": 27.859007,
        "SUBTYPE": "中餐厅",
        "geometry": "POINT (120.788994 27.859007)"
    },
    {
        "Unnamed: 0": 3066662,
        "NAME": "木生火烧烤吧",
        "CITY": "金华市",
        "COUNTY": "义乌市",
        "LON": 120.04792,
        "LAT": 29.290995,
        "SUBTYPE": "中餐厅",
        "geometry": "POINT (120.04792 29.290995)"
    },
    {
        "Unnamed: 0": 2610055,
        "NAME": "巴比馒头",
        "CITY": "杭州市",
        "COUNTY": "下城区",
        "LON": 120.159622,
        "LAT": 30.268742,
        "SUBTYPE": "餐饮相关场所",
        "geometry": "POINT (120.159622 30.268742)"
    },
    {
        "Unnamed: 0": 4605780,
        "NAME": "江西饭店(西路桥大道549弄)",
        "CITY": "台州市",
        "COUNTY": "路桥区",
        "LON": 121.35807,
        "LAT": 28.587458,
        "SUBTYPE": "中餐厅",
        "geometry": "POINT (121.35807 28.587458)"
    },
    {
        "Unnamed: 0": 957482,
        "NAME": "峙山饭店",
        "CITY": "杭州市",
        "COUNTY": "桐庐县",
        "LON": 119.687607,
        "LAT": 29.76178,
        "SUBTYPE": "中餐厅",
        "geometry": "POINT (119.687607 29.76178)"
    },
    {
        "Unnamed: 0": 4154527,
        "NAME": "微萨(体育中心店)",
        "CITY": "温州市",
        "COUNTY": "苍南县",
        "LON": 120.549461,
        "LAT": 27.583536,
        "SUBTYPE": "快餐厅",
        "geometry": "POINT (120.549461 27.583536)"
    },
    {
        "Unnamed: 0": 3344559,
        "NAME": "青猫咖啡",
        "CITY": "金华市",
        "COUNTY": "东阳市",
        "LON": 120.222427,
        "LAT": 29.277557,
        "SUBTYPE": "咖啡厅",
        "geometry": "POINT (120.222427 29.277557)"
    },
    {
        "Unnamed: 0": 2313417,
        "NAME": "鸬鸟镇全山屋饭店",
        "CITY": "杭州市",
        "COUNTY": "余杭区",
        "LON": 119.760544,
        "LAT": 30.45064,
        "SUBTYPE": "中餐厅",
        "geometry": "POINT (119.760544 30.45064)"
    },
    {
        "Unnamed: 0": 2616882,
        "NAME": "斗牛士(湖滨店)",
        "CITY": "杭州市",
        "COUNTY": "上城区",
        "LON": 120.163116,
        "LAT": 30.252207,
        "SUBTYPE": "外国餐厅",
        "geometry": "POINT (120.163116 30.252207)"
    },
    {
        "Unnamed: 0": 2925416,
        "NAME": "德克士(新塘店)",
        "CITY": "杭州市",
        "COUNTY": "江干区",
        "LON": 120.20752,
        "LAT": 30.25955,
        "SUBTYPE": "快餐厅",
        "geometry": "POINT (120.20752 30.25955)"
    },
    {
        "Unnamed: 0": 3138262,
        "NAME": "川味小炒",
        "CITY": "金华市",
        "COUNTY": "永康市",
        "LON": 120.002792,
        "LAT": 28.899309,
        "SUBTYPE": "中餐厅",
        "geometry": "POINT (120.002792 28.899309)"
    },
    {
        "Unnamed: 0": 3571588,
        "NAME": "昕成砂锅",
        "CITY": "舟山市",
        "COUNTY": "定海区",
        "LON": 122.09848,
        "LAT": 30.011959,
        "SUBTYPE": "快餐厅",
        "geometry": "POINT (122.09848 30.011959)"
    },
    {
        "Unnamed: 0": 4335548,
        "NAME": "老灶房饭店",
        "CITY": "湖州市",
        "COUNTY": "长兴县",
        "LON": 119.937439,
        "LAT": 31.084015,
        "SUBTYPE": "中餐厅",
        "geometry": "POINT (119.937439 31.084015)"
    },
    {
        "Unnamed: 0": 641256,
        "NAME": "西门快餐",
        "CITY": "台州市",
        "COUNTY": "三门县",
        "LON": 121.372322,
        "LAT": 29.116377,
        "SUBTYPE": "快餐厅",
        "geometry": "POINT (121.372322 29.116377)"
    },
    {
        "Unnamed: 0": 2009675,
        "NAME": "洪塘再回首泡椒牛蛙",
        "CITY": "宁波市",
        "COUNTY": "江北区",
        "LON": 121.506569,
        "LAT": 29.937897,
        "SUBTYPE": "中餐厅",
        "geometry": "POINT (121.506569 29.937897)"
    },
    {
        "Unnamed: 0": 2299010,
        "NAME": "淳安临岐野味馆",
        "CITY": "杭州市",
        "COUNTY": "淳安县",
        "LON": 119.110847,
        "LAT": 29.844971,
        "SUBTYPE": "中餐厅",
        "geometry": "POINT (119.110847 29.844971)"
    },
    {
        "Unnamed: 0": 19910,
        "NAME": "同心香菜馆",
        "CITY": "湖州市",
        "COUNTY": "吴兴区",
        "LON": 120.092293,
        "LAT": 30.863178,
        "SUBTYPE": "中餐厅",
        "geometry": "POINT (120.092293 30.863178)"
    },
    {
        "Unnamed: 0": 3823891,
        "NAME": "唯咔咖啡",
        "CITY": "金华市",
        "COUNTY": "婺城区",
        "LON": 119.648949,
        "LAT": 29.090658,
        "SUBTYPE": "咖啡厅",
        "geometry": "POINT (119.648949 29.090658)"
    },
    {
        "Unnamed: 0": 957479,
        "NAME": "全鱼道金牌私房鱼",
        "CITY": "杭州市",
        "COUNTY": "桐庐县",
        "LON": 119.698967,
        "LAT": 29.801407,
        "SUBTYPE": "中餐厅",
        "geometry": "POINT (119.698967 29.801407)"
    },
    {
        "Unnamed: 0": 1777273,
        "NAME": "赣川湘味(兴港路)",
        "CITY": "宁波市",
        "COUNTY": "象山县",
        "LON": 121.931297,
        "LAT": 29.193998,
        "SUBTYPE": "中餐厅",
        "geometry": "POINT (121.931297 29.193998)"
    },
    {
        "Unnamed: 0": 1897902,
        "NAME": "米兰大众快餐",
        "CITY": "衢州市",
        "COUNTY": "柯城区",
        "LON": 118.895805,
        "LAT": 28.944832,
        "SUBTYPE": "中餐厅",
        "geometry": "POINT (118.895805 28.944832)"
    },
    {
        "Unnamed: 0": 4120971,
        "NAME": "黄焖鸡米饭",
        "CITY": "温州市",
        "COUNTY": "鹿城区",
        "LON": 120.622803,
        "LAT": 28.004484,
        "SUBTYPE": "中餐厅",
        "geometry": "POINT (120.622803 28.004484)"
    },
    {
        "Unnamed: 0": 2916499,
        "NAME": "Les Paradis",
        "CITY": "杭州市",
        "COUNTY": "江干区",
        "LON": 120.347603,
        "LAT": 30.317612,
        "SUBTYPE": "咖啡厅",
        "geometry": "POINT (120.347603 30.317612)"
    },
    {
        "Unnamed: 0": 2929123,
        "NAME": "红牛次坞打面(蓝天路)",
        "CITY": "杭州市",
        "COUNTY": "萧山区",
        "LON": 120.288002,
        "LAT": 30.155115,
        "SUBTYPE": "中餐厅",
        "geometry": "POINT (120.288002 30.155115)"
    },
    {
        "Unnamed: 0": 3823361,
        "NAME": "双平牛杂面馆",
        "CITY": "金华市",
        "COUNTY": "婺城区",
        "LON": 119.639572,
        "LAT": 29.110771,
        "SUBTYPE": "中餐厅",
        "geometry": "POINT (119.639572 29.110771)"
    },
    {
        "Unnamed: 0": 4343910,
        "NAME": "不老神鸡(千秋街店)",
        "CITY": "湖州市",
        "COUNTY": "德清县",
        "LON": 119.965614,
        "LAT": 30.541531,
        "SUBTYPE": "餐饮相关场所",
        "geometry": "POINT (119.965614 30.541531)"
    },
    {
        "Unnamed: 0": 2885390,
        "NAME": "锦客林美食坊(西苑店)",
        "CITY": "杭州市",
        "COUNTY": "临安区",
        "LON": 119.714279,
        "LAT": 30.228954,
        "SUBTYPE": "中餐厅",
        "geometry": "POINT (119.714279 30.228954)"
    },
    {
        "Unnamed: 0": 3823585,
        "NAME": "李记酸菜鱼(寺前王路)",
        "CITY": "金华市",
        "COUNTY": "婺城区",
        "LON": 119.649666,
        "LAT": 29.074804,
        "SUBTYPE": "中餐厅",
        "geometry": "POINT (119.649666 29.074804)"
    },
    {
        "Unnamed: 0": 4339532,
        "NAME": "练市湖宝羊肉酒楼",
        "CITY": "湖州市",
        "COUNTY": "南浔区",
        "LON": 120.417198,
        "LAT": 30.710646,
        "SUBTYPE": "中餐厅",
        "geometry": "POINT (120.417198 30.710646)"
    },
    {
        "Unnamed: 0": 47767,
        "NAME": "豫皖早点",
        "CITY": "台州市",
        "COUNTY": "温岭市",
        "LON": 121.356308,
        "LAT": 28.505854,
        "SUBTYPE": "餐饮相关场所",
        "geometry": "POINT (121.356308 28.505854)"
    },
    {
        "Unnamed: 0": 3057089,
        "NAME": "永和豆浆(义乌店)",
        "CITY": "金华市",
        "COUNTY": "义乌市",
        "LON": 120.074165,
        "LAT": 29.300875,
        "SUBTYPE": "快餐厅",
        "geometry": "POINT (120.074165 29.300875)"
    },
    {
        "Unnamed: 0": 1416930,
        "NAME": "吉明小吃",
        "CITY": "嘉兴市",
        "COUNTY": "嘉善县",
        "LON": 120.806709,
        "LAT": 30.894581,
        "SUBTYPE": "快餐厅",
        "geometry": "POINT (120.806709 30.894581)"
    },
    {
        "Unnamed: 0": 4339186,
        "NAME": "香蕉蛋糕房",
        "CITY": "湖州市",
        "COUNTY": "南浔区",
        "LON": 120.429688,
        "LAT": 30.876286,
        "SUBTYPE": "餐饮相关场所",
        "geometry": "POINT (120.429688 30.876286)"
    },
    {
        "Unnamed: 0": 311465,
        "NAME": "银币山餐厅",
        "CITY": "绍兴市",
        "COUNTY": "柯桥区",
        "LON": 120.479179,
        "LAT": 30.06694,
        "SUBTYPE": "中餐厅",
        "geometry": "POINT (120.479179 30.06694)"
    },
    {
        "Unnamed: 0": 311505,
        "NAME": "天下第一美食蛙蛙香",
        "CITY": "绍兴市",
        "COUNTY": "柯桥区",
        "LON": 120.495499,
        "LAT": 30.069935,
        "SUBTYPE": "中餐厅",
        "geometry": "POINT (120.495499 30.069935)"
    },
    {
        "Unnamed: 0": 3193507,
        "NAME": "舌尖上De海鲜",
        "CITY": "杭州市",
        "COUNTY": "富阳区",
        "LON": 119.943275,
        "LAT": 30.061342,
        "SUBTYPE": "中餐厅",
        "geometry": "POINT (119.943275 30.061342)"
    },
    {
        "Unnamed: 0": 2934879,
        "NAME": "西津桥花溪牛肉粉店",
        "CITY": "杭州市",
        "COUNTY": "西湖区",
        "LON": 120.128601,
        "LAT": 30.275482,
        "SUBTYPE": "中餐厅",
        "geometry": "POINT (120.128601 30.275482)"
    },
    {
        "Unnamed: 0": 1396310,
        "NAME": "建华农家馆",
        "CITY": "嘉兴市",
        "COUNTY": "桐乡市",
        "LON": 120.492149,
        "LAT": 30.739866,
        "SUBTYPE": "中餐厅",
        "geometry": "POINT (120.492149 30.739866)"
    },
    {
        "Unnamed: 0": 280806,
        "NAME": "祥生世纪酒店-祥和宴会厅",
        "CITY": "绍兴市",
        "COUNTY": "诸暨市",
        "LON": 120.253677,
        "LAT": 29.702696,
        "SUBTYPE": "中餐厅",
        "geometry": "POINT (120.253677 29.702696)"
    },
    {
        "Unnamed: 0": 2297077,
        "NAME": "成都麻辣烫",
        "CITY": "杭州市",
        "COUNTY": "滨江区",
        "LON": 120.225098,
        "LAT": 30.21554,
        "SUBTYPE": "中餐厅",
        "geometry": "POINT (120.225098 30.21554)"
    },
    {
        "Unnamed: 0": 314051,
        "NAME": "理想饭店(二环西路辅路)",
        "CITY": "绍兴市",
        "COUNTY": "柯桥区",
        "LON": 120.546631,
        "LAT": 29.970306,
        "SUBTYPE": "中餐厅",
        "geometry": "POINT (120.546631 29.970306)"
    },
    {
        "Unnamed: 0": 2964971,
        "NAME": "蒙记酿皮店",
        "CITY": "杭州市",
        "COUNTY": "拱墅区",
        "LON": 120.116753,
        "LAT": 30.332323,
        "SUBTYPE": "中餐厅",
        "geometry": "POINT (120.116753 30.332323)"
    },
    {
        "Unnamed: 0": 1390978,
        "NAME": "五芳斋粽子(文昌路店)",
        "CITY": "嘉兴市",
        "COUNTY": "南湖区",
        "LON": 120.736755,
        "LAT": 30.749409,
        "SUBTYPE": "中餐厅",
        "geometry": "POINT (120.736755 30.749409)"
    },
    {
        "Unnamed: 0": 505881,
        "NAME": "锦辉商行",
        "CITY": "丽水市",
        "COUNTY": "景宁畲族自治县",
        "LON": 119.640305,
        "LAT": 27.968678,
        "SUBTYPE": "中餐厅",
        "geometry": "POINT (119.640305 27.968678)"
    },
    {
        "Unnamed: 0": 3828272,
        "NAME": "金山城川菜馆",
        "CITY": "金华市",
        "COUNTY": "永康市",
        "LON": 120.097145,
        "LAT": 28.901028,
        "SUBTYPE": "中餐厅",
        "geometry": "POINT (120.097145 28.901028)"
    },
    {
        "Unnamed: 0": 2937349,
        "NAME": "瑞余烤鱼堂(丰潭路店)",
        "CITY": "杭州市",
        "COUNTY": "西湖区",
        "LON": 120.108955,
        "LAT": 30.283508,
        "SUBTYPE": "中餐厅",
        "geometry": "POINT (120.108955 30.283508)"
    },
    {
        "Unnamed: 0": 3084145,
        "NAME": "知味私房菜(丁桥店)",
        "CITY": "杭州市",
        "COUNTY": "江干区",
        "LON": 120.229057,
        "LAT": 30.35495,
        "SUBTYPE": "中餐厅",
        "geometry": "POINT (120.229057 30.35495)"
    },
    {
        "Unnamed: 0": 2963010,
        "NAME": "老杭州馄饨店(大浒街店)",
        "CITY": "杭州市",
        "COUNTY": "拱墅区",
        "LON": 120.143333,
        "LAT": 30.309427,
        "SUBTYPE": "中餐厅",
        "geometry": "POINT (120.143333 30.309427)"
    },
    {
        "Unnamed: 0": 3515923,
        "NAME": "重庆特色牛杂面",
        "CITY": "温州市",
        "COUNTY": "瑞安市",
        "LON": 120.679611,
        "LAT": 27.844933,
        "SUBTYPE": "中餐厅",
        "geometry": "POINT (120.679611 27.844933)"
    },
    {
        "Unnamed: 0": 302048,
        "NAME": "克莉丝汀(文体路店)",
        "CITY": "绍兴市",
        "COUNTY": "新昌县",
        "LON": 120.90493,
        "LAT": 29.50268,
        "SUBTYPE": "糕饼店",
        "geometry": "POINT (120.90493 29.50268)"
    },
    {
        "Unnamed: 0": 2296054,
        "NAME": "找茶趣奶茶屋(立业路)",
        "CITY": "杭州市",
        "COUNTY": "滨江区",
        "LON": 120.185272,
        "LAT": 30.185238,
        "SUBTYPE": "冷饮店",
        "geometry": "POINT (120.185272 30.185238)"
    },
    {
        "Unnamed: 0": 2331648,
        "NAME": "金汤碗",
        "CITY": "杭州市",
        "COUNTY": "余杭区",
        "LON": 120.307236,
        "LAT": 30.410629,
        "SUBTYPE": "中餐厅",
        "geometry": "POINT (120.307236 30.410629)"
    },
    {
        "Unnamed: 0": 350530,
        "NAME": "肯德基(定海东门店)",
        "CITY": "舟山市",
        "COUNTY": "定海区",
        "LON": 122.118851,
        "LAT": 30.015905,
        "SUBTYPE": "快餐厅",
        "geometry": "POINT (122.118851 30.015905)"
    },
    {
        "Unnamed: 0": 1106082,
        "NAME": "一鸣真鲜奶吧(灵溪北路)",
        "CITY": "台州市",
        "COUNTY": "玉环市",
        "LON": 121.309486,
        "LAT": 28.194168,
        "SUBTYPE": "餐饮相关场所",
        "geometry": "POINT (121.309486 28.194168)"
    },
    {
        "Unnamed: 0": 1431701,
        "NAME": "小香馄饨铺",
        "CITY": "杭州市",
        "COUNTY": "下城区",
        "LON": 120.186378,
        "LAT": 30.27084,
        "SUBTYPE": "中餐厅",
        "geometry": "POINT (120.186378 30.27084)"
    },
    {
        "Unnamed: 0": 539363,
        "NAME": "月英拉面馆",
        "CITY": "丽水市",
        "COUNTY": "遂昌县",
        "LON": 119.273422,
        "LAT": 28.595167,
        "SUBTYPE": "中餐厅",
        "geometry": "POINT (119.273422 28.595167)"
    },
    {
        "Unnamed: 0": 4336257,
        "NAME": "大草包早点快餐(海兴路分店)",
        "CITY": "湖州市",
        "COUNTY": "长兴县",
        "LON": 119.90715,
        "LAT": 30.994648,
        "SUBTYPE": "餐饮相关场所",
        "geometry": "POINT (119.90715 30.994648)"
    },
    {
        "Unnamed: 0": 1776905,
        "NAME": "乡下头餐馆",
        "CITY": "宁波市",
        "COUNTY": "象山县",
        "LON": 121.885544,
        "LAT": 29.473967,
        "SUBTYPE": "中餐厅",
        "geometry": "POINT (121.885544 29.473967)"
    },
    {
        "Unnamed: 0": 2611206,
        "NAME": "重庆川菜馆(甘长路)",
        "CITY": "杭州市",
        "COUNTY": "下城区",
        "LON": 120.180786,
        "LAT": 30.335276,
        "SUBTYPE": "中餐厅",
        "geometry": "POINT (120.180786 30.335276)"
    },
    {
        "Unnamed: 0": 641004,
        "NAME": "河南名吃",
        "CITY": "台州市",
        "COUNTY": "椒江区",
        "LON": 121.417793,
        "LAT": 28.6175,
        "SUBTYPE": "中餐厅",
        "geometry": "POINT (121.417793 28.6175)"
    },
    {
        "Unnamed: 0": 1106628,
        "NAME": "阿生烤鱼",
        "CITY": "台州市",
        "COUNTY": "玉环市",
        "LON": 121.158592,
        "LAT": 28.0868,
        "SUBTYPE": "中餐厅",
        "geometry": "POINT (121.158592 28.0868)"
    },
    {
        "Unnamed: 0": 1043478,
        "NAME": "净德圆净素食品",
        "CITY": "嘉兴市",
        "COUNTY": "秀洲区",
        "LON": 120.613327,
        "LAT": 30.796032,
        "SUBTYPE": "糕饼店",
        "geometry": "POINT (120.613327 30.796032)"
    },
    {
        "Unnamed: 0": 2925625,
        "NAME": "阿咪香(衣之家百货城东店)",
        "CITY": "杭州市",
        "COUNTY": "江干区",
        "LON": 120.200523,
        "LAT": 30.287554,
        "SUBTYPE": "外国餐厅",
        "geometry": "POINT (120.200523 30.287554)"
    },
    {
        "Unnamed: 0": 298634,
        "NAME": "如意馄饨",
        "CITY": "绍兴市",
        "COUNTY": "上虞区",
        "LON": 120.866722,
        "LAT": 30.008457,
        "SUBTYPE": "中餐厅",
        "geometry": "POINT (120.866722 30.008457)"
    },
    {
        "Unnamed: 0": 2610207,
        "NAME": "泽川寿司(凤起二店)",
        "CITY": "杭州市",
        "COUNTY": "下城区",
        "LON": 120.159561,
        "LAT": 30.262871,
        "SUBTYPE": "外国餐厅",
        "geometry": "POINT (120.159561 30.262871)"
    },
    {
        "Unnamed: 0": 299210,
        "NAME": "野子老店农家菜",
        "CITY": "绍兴市",
        "COUNTY": "上虞区",
        "LON": 120.864006,
        "LAT": 30.000431,
        "SUBTYPE": "中餐厅",
        "geometry": "POINT (120.864006 30.000431)"
    },
    {
        "Unnamed: 0": 2885274,
        "NAME": "华海饭店(建国新街)",
        "CITY": "杭州市",
        "COUNTY": "临安市",
        "LON": 119.49395,
        "LAT": 30.197241,
        "SUBTYPE": "中餐厅",
        "geometry": "POINT (119.49395 30.197241)"
    },
    {
        "Unnamed: 0": 4613635,
        "NAME": "四川桥头麻辣烫",
        "CITY": "台州市",
        "COUNTY": "路桥区",
        "LON": 121.393219,
        "LAT": 28.5592,
        "SUBTYPE": "中餐厅",
        "geometry": "POINT (121.393219 28.5592)"
    },
    {
        "Unnamed: 0": 2881719,
        "NAME": "娘家粗菜",
        "CITY": "杭州市",
        "COUNTY": "临安区",
        "LON": 119.223518,
        "LAT": 30.165716,
        "SUBTYPE": "中餐厅",
        "geometry": "POINT (119.223518 30.165716)"
    },
    {
        "Unnamed: 0": 3369161,
        "NAME": "次坞打面馆",
        "CITY": "金华市",
        "COUNTY": "东阳市",
        "LON": 120.439621,
        "LAT": 29.319664,
        "SUBTYPE": "中餐厅",
        "geometry": "POINT (120.439621 29.319664)"
    },
    {
        "Unnamed: 0": 350543,
        "NAME": "鲜香坊",
        "CITY": "舟山市",
        "COUNTY": "定海区",
        "LON": 122.091393,
        "LAT": 30.013603,
        "SUBTYPE": "中餐厅",
        "geometry": "POINT (122.091393 30.013603)"
    },
    {
        "Unnamed: 0": 2296661,
        "NAME": "元佬鲜包(长江路)",
        "CITY": "杭州市",
        "COUNTY": "滨江区",
        "LON": 120.195045,
        "LAT": 30.171013,
        "SUBTYPE": "餐饮相关场所",
        "geometry": "POINT (120.195045 30.171013)"
    },
    {
        "Unnamed: 0": 2616330,
        "NAME": "随意小吃",
        "CITY": "杭州市",
        "COUNTY": "上城区",
        "LON": 120.182106,
        "LAT": 30.239017,
        "SUBTYPE": "中餐厅",
        "geometry": "POINT (120.182106 30.239017)"
    },
    {
        "Unnamed: 0": 2615274,
        "NAME": "黄焖鸡米饭",
        "CITY": "杭州市",
        "COUNTY": "上城区",
        "LON": 120.171738,
        "LAT": 30.214325,
        "SUBTYPE": "快餐厅",
        "geometry": "POINT (120.171738 30.214325)"
    },
    {
        "Unnamed: 0": 295445,
        "NAME": "Q果奶茶炸鸡汉堡",
        "CITY": "绍兴市",
        "COUNTY": "越城区",
        "LON": 120.671616,
        "LAT": 30.006987,
        "SUBTYPE": "餐饮相关场所",
        "geometry": "POINT (120.671616 30.006987)"
    },
    {
        "Unnamed: 0": 280052,
        "NAME": "肯德基(柏叶店)",
        "CITY": "台州市",
        "COUNTY": "临海市",
        "LON": 121.142509,
        "LAT": 28.849676,
        "SUBTYPE": "快餐厅",
        "geometry": "POINT (121.142509 28.849676)"
    },
    {
        "Unnamed: 0": 2297770,
        "NAME": "万州烤鱼",
        "CITY": "杭州市",
        "COUNTY": "滨江区",
        "LON": 120.197762,
        "LAT": 30.195698,
        "SUBTYPE": "中餐厅",
        "geometry": "POINT (120.197762 30.195698)"
    },
    {
        "Unnamed: 0": 2914570,
        "NAME": "东北饺子馆(10号大街)",
        "CITY": "杭州市",
        "COUNTY": "江干区",
        "LON": 120.344368,
        "LAT": 30.296509,
        "SUBTYPE": "中餐厅",
        "geometry": "POINT (120.344368 30.296509)"
    },
    {
        "Unnamed: 0": 4561830,
        "NAME": "和兴园排骨饭(廿亩山店)",
        "CITY": "金华市",
        "COUNTY": "浦江县",
        "LON": 119.948006,
        "LAT": 29.45196,
        "SUBTYPE": "中餐厅",
        "geometry": "POINT (119.948006 29.45196)"
    },
    {
        "Unnamed: 0": 1683800,
        "NAME": "杭州文杰面馆",
        "CITY": "杭州市",
        "COUNTY": "富阳区",
        "LON": 119.938339,
        "LAT": 30.054941,
        "SUBTYPE": "中餐厅",
        "geometry": "POINT (119.938339 30.054941)"
    },
    {
        "Unnamed: 0": 1777152,
        "NAME": "兴旺炒菜",
        "CITY": "宁波市",
        "COUNTY": "象山县",
        "LON": 121.945282,
        "LAT": 29.208851,
        "SUBTYPE": "中餐厅",
        "geometry": "POINT (121.945282 29.208851)"
    },
    {
        "Unnamed: 0": 2923252,
        "NAME": "原醇小站",
        "CITY": "杭州市",
        "COUNTY": "江干区",
        "LON": 120.203651,
        "LAT": 30.260481,
        "SUBTYPE": "中餐厅",
        "geometry": "POINT (120.203651 30.260481)"
    },
    {
        "Unnamed: 0": 4144010,
        "NAME": "麻辣川味居",
        "CITY": "温州市",
        "COUNTY": "苍南县",
        "LON": 120.542236,
        "LAT": 27.511963,
        "SUBTYPE": "中餐厅",
        "geometry": "POINT (120.542236 27.511963)"
    },
    {
        "Unnamed: 0": 1769920,
        "NAME": "小海鲜饭店",
        "CITY": "宁波市",
        "COUNTY": "象山县",
        "LON": 121.656189,
        "LAT": 29.468521,
        "SUBTYPE": "中餐厅",
        "geometry": "POINT (121.656189 29.468521)"
    },
    {
        "Unnamed: 0": 4344790,
        "NAME": "赣川湘饭店",
        "CITY": "湖州市",
        "COUNTY": "德清县",
        "LON": 119.967743,
        "LAT": 30.529388,
        "SUBTYPE": "中餐厅",
        "geometry": "POINT (119.967743 30.529388)"
    },
    {
        "Unnamed: 0": 1898241,
        "NAME": "佳好家",
        "CITY": "衢州市",
        "COUNTY": "柯城区",
        "LON": 118.875267,
        "LAT": 28.966404,
        "SUBTYPE": "中餐厅",
        "geometry": "POINT (118.875267 28.966404)"
    },
    {
        "Unnamed: 0": 399931,
        "NAME": "六横虞记生煎",
        "CITY": "舟山市",
        "COUNTY": "普陀区",
        "LON": 122.117058,
        "LAT": 29.74159,
        "SUBTYPE": "中餐厅",
        "geometry": "POINT (122.117058 29.74159)"
    },
    {
        "Unnamed: 0": 927402,
        "NAME": "兰州正宗牛肉拉面(文山路)",
        "CITY": "宁波市",
        "COUNTY": "余姚市",
        "LON": 121.18335,
        "LAT": 30.060905,
        "SUBTYPE": "中餐厅",
        "geometry": "POINT (121.18335 30.060905)"
    },
    {
        "Unnamed: 0": 2299409,
        "NAME": "千岛湖杨家农庄",
        "CITY": "杭州市",
        "COUNTY": "淳安县",
        "LON": 118.889282,
        "LAT": 29.60873,
        "SUBTYPE": "餐饮相关场所",
        "geometry": "POINT (118.889282 29.60873)"
    },
    {
        "Unnamed: 0": 1987435,
        "NAME": "渝味重庆麻辣烫(励家路店)",
        "CITY": "宁波市",
        "COUNTY": "慈溪市",
        "LON": 121.264664,
        "LAT": 30.163651,
        "SUBTYPE": "中餐厅",
        "geometry": "POINT (121.264664 30.163651)"
    },
    {
        "Unnamed: 0": 293832,
        "NAME": "好吃再来",
        "CITY": "绍兴市",
        "COUNTY": "越城区",
        "LON": 120.528481,
        "LAT": 30.067511,
        "SUBTYPE": "中餐厅",
        "geometry": "POINT (120.528481 30.067511)"
    },
    {
        "Unnamed: 0": 410342,
        "NAME": "原味食堂",
        "CITY": "温州市",
        "COUNTY": "乐清市",
        "LON": 120.856834,
        "LAT": 28.032539,
        "SUBTYPE": "中餐厅",
        "geometry": "POINT (120.856834 28.032539)"
    },
    {
        "Unnamed: 0": 2962141,
        "NAME": "享百味(登云路店)",
        "CITY": "杭州市",
        "COUNTY": "拱墅区",
        "LON": 120.12307,
        "LAT": 30.30438,
        "SUBTYPE": "中餐厅",
        "geometry": "POINT (120.12307 30.30438)"
    },
    {
        "Unnamed: 0": 2614289,
        "NAME": "温州黄牛排",
        "CITY": "杭州市",
        "COUNTY": "上城区",
        "LON": 120.168884,
        "LAT": 30.234297,
        "SUBTYPE": "餐饮相关场所",
        "geometry": "POINT (120.168884 30.234297)"
    },
    {
        "Unnamed: 0": 1896541,
        "NAME": "汤姆小屋",
        "CITY": "衢州市",
        "COUNTY": "柯城区",
        "LON": 118.864914,
        "LAT": 28.977531,
        "SUBTYPE": "冷饮店",
        "geometry": "POINT (118.864914 28.977531)"
    },
    {
        "Unnamed: 0": 2614436,
        "NAME": "麦果网(迪蕾水果店)",
        "CITY": "杭州市",
        "COUNTY": "上城区",
        "LON": 120.20208,
        "LAT": 30.231409,
        "SUBTYPE": "中餐厅",
        "geometry": "POINT (120.20208 30.231409)"
    },
    {
        "Unnamed: 0": 2916007,
        "NAME": "黑泷堂饮铺(秋涛北路店)",
        "CITY": "杭州市",
        "COUNTY": "江干区",
        "LON": 120.199242,
        "LAT": 30.284201,
        "SUBTYPE": "冷饮店",
        "geometry": "POINT (120.199242 30.284201)"
    },
    {
        "Unnamed: 0": 4129291,
        "NAME": "塘湾街特色风情餐厅",
        "CITY": "温州市",
        "COUNTY": "龙湾区",
        "LON": 120.791603,
        "LAT": 27.859055,
        "SUBTYPE": "中餐厅",
        "geometry": "POINT (120.791603 27.859055)"
    },
    {
        "Unnamed: 0": 296074,
        "NAME": "香农庄(车站路)",
        "CITY": "绍兴市",
        "COUNTY": "越城区",
        "LON": 120.577034,
        "LAT": 30.010233,
        "SUBTYPE": "中餐厅",
        "geometry": "POINT (120.577034 30.010233)"
    },
    {
        "Unnamed: 0": 295171,
        "NAME": "湖北家常菜馆",
        "CITY": "绍兴市",
        "COUNTY": "越城区",
        "LON": 120.600044,
        "LAT": 30.054089,
        "SUBTYPE": "中餐厅",
        "geometry": "POINT (120.600044 30.054089)"
    },
    {
        "Unnamed: 0": 3209691,
        "NAME": "兰州正宗牛肉拉面(龙飞路)",
        "CITY": "温州市",
        "COUNTY": "龙湾区",
        "LON": 120.766884,
        "LAT": 27.969704,
        "SUBTYPE": "中餐厅",
        "geometry": "POINT (120.766884 27.969704)"
    },
    {
        "Unnamed: 0": 1548776,
        "NAME": "张记正宗淮南牛肉汤(城西路店)",
        "CITY": "嘉兴市",
        "COUNTY": "平湖市",
        "LON": 121.00827,
        "LAT": 30.704634,
        "SUBTYPE": "中餐厅",
        "geometry": "POINT (121.00827 30.704634)"
    },
    {
        "Unnamed: 0": 4604565,
        "NAME": "贪吃斋",
        "CITY": "台州市",
        "COUNTY": "路桥区",
        "LON": 121.521988,
        "LAT": 28.500801,
        "SUBTYPE": "中餐厅",
        "geometry": "POINT (121.521988 28.500801)"
    },
    {
        "Unnamed: 0": 1402033,
        "NAME": "好味坊",
        "CITY": "宁波市",
        "COUNTY": "鄞州区",
        "LON": 121.571709,
        "LAT": 29.80415,
        "SUBTYPE": "中餐厅",
        "geometry": "POINT (121.571709 29.80415)"
    },
    {
        "Unnamed: 0": 412116,
        "NAME": "江南印象大茶楼",
        "CITY": "温州市",
        "COUNTY": "乐清市",
        "LON": 120.896896,
        "LAT": 28.044973,
        "SUBTYPE": "中餐厅",
        "geometry": "POINT (120.896896 28.044973)"
    },
    {
        "Unnamed: 0": 3090747,
        "NAME": "千滋百味私房手工面",
        "CITY": "杭州市",
        "COUNTY": "滨江区",
        "LON": 120.156975,
        "LAT": 30.170012,
        "SUBTYPE": "中餐厅",
        "geometry": "POINT (120.156975 30.170012)"
    },
    {
        "Unnamed: 0": 2613179,
        "NAME": "波仔小吃",
        "CITY": "杭州市",
        "COUNTY": "下城区",
        "LON": 120.166145,
        "LAT": 30.315659,
        "SUBTYPE": "中餐厅",
        "geometry": "POINT (120.166145 30.315659)"
    },
    {
        "Unnamed: 0": 1004425,
        "NAME": "鸿记煌焖锅",
        "CITY": "宁波市",
        "COUNTY": "鄞州区",
        "LON": 121.562752,
        "LAT": 29.839624,
        "SUBTYPE": "中餐厅",
        "geometry": "POINT (121.562752 29.839624)"
    },
    {
        "Unnamed: 0": 3057899,
        "NAME": "吉祥馄饨(篁园店)",
        "CITY": "金华市",
        "COUNTY": "义乌市",
        "LON": 120.081917,
        "LAT": 29.301224,
        "SUBTYPE": "快餐厅",
        "geometry": "POINT (120.081917 29.301224)"
    },
    {
        "Unnamed: 0": 2300793,
        "NAME": "街坊饺子馆",
        "CITY": "杭州市",
        "COUNTY": "建德市",
        "LON": 119.275429,
        "LAT": 29.473742,
        "SUBTYPE": "中餐厅",
        "geometry": "POINT (119.275429 29.473742)"
    },
    {
        "Unnamed: 0": 1794073,
        "NAME": "一鸣真鲜奶吧(白杨街店)",
        "CITY": "宁波市",
        "COUNTY": "海曙区",
        "LON": 121.529808,
        "LAT": 29.875242,
        "SUBTYPE": "休闲餐饮场所",
        "geometry": "POINT (121.529808 29.875242)"
    },
    {
        "Unnamed: 0": 496178,
        "NAME": "红光满面",
        "CITY": "丽水市",
        "COUNTY": "青田县",
        "LON": 120.278427,
        "LAT": 28.139633,
        "SUBTYPE": "中餐厅",
        "geometry": "POINT (120.278427 28.139633)"
    },
    {
        "Unnamed: 0": 2613689,
        "NAME": "茉莉花大酒店-茶吧",
        "CITY": "杭州市",
        "COUNTY": "下城区",
        "LON": 120.17009,
        "LAT": 30.30942,
        "SUBTYPE": "茶艺馆",
        "geometry": "POINT (120.17009 30.30942)"
    },
    {
        "Unnamed: 0": 4144790,
        "NAME": "酒香茶楼",
        "CITY": "温州市",
        "COUNTY": "苍南县",
        "LON": 120.45813,
        "LAT": 27.263174,
        "SUBTYPE": "咖啡厅",
        "geometry": "POINT (120.45813 27.263174)"
    },
    {
        "Unnamed: 0": 1107452,
        "NAME": "如果·爱",
        "CITY": "台州市",
        "COUNTY": "玉环市",
        "LON": 121.281769,
        "LAT": 28.091225,
        "SUBTYPE": "餐饮相关场所",
        "geometry": "POINT (121.281769 28.091225)"
    },
    {
        "Unnamed: 0": 4337474,
        "NAME": "河南饭店(港南路)",
        "CITY": "湖州市",
        "COUNTY": "吴兴区",
        "LON": 120.077347,
        "LAT": 30.852667,
        "SUBTYPE": "中餐厅",
        "geometry": "POINT (120.077347 30.852667)"
    },
    {
        "Unnamed: 0": 2916515,
        "NAME": "沙县小吃(民丰路)",
        "CITY": "杭州市",
        "COUNTY": "江干区",
        "LON": 120.274307,
        "LAT": 30.318937,
        "SUBTYPE": "中餐厅",
        "geometry": "POINT (120.274307 30.318937)"
    },
    {
        "Unnamed: 0": 2300591,
        "NAME": "金苑酒家",
        "CITY": "杭州市",
        "COUNTY": "建德市",
        "LON": 119.284683,
        "LAT": 29.476965,
        "SUBTYPE": "中餐厅",
        "geometry": "POINT (119.284683 29.476965)"
    },
    {
        "Unnamed: 0": 4404220,
        "NAME": "沙县小吃(银河路店)",
        "CITY": "宁波市",
        "COUNTY": "宁海县",
        "LON": 121.43782,
        "LAT": 29.309177,
        "SUBTYPE": "中餐厅",
        "geometry": "POINT (121.43782 29.309177)"
    },
    {
        "Unnamed: 0": 1106066,
        "NAME": "米索西",
        "CITY": "台州市",
        "COUNTY": "玉环市",
        "LON": 121.231995,
        "LAT": 28.128342,
        "SUBTYPE": "外国餐厅",
        "geometry": "POINT (121.231995 28.128342)"
    },
    {
        "Unnamed: 0": 2299475,
        "NAME": "好实惠渔庄",
        "CITY": "杭州市",
        "COUNTY": "淳安县",
        "LON": 119.040657,
        "LAT": 29.591551,
        "SUBTYPE": "中餐厅",
        "geometry": "POINT (119.040657 29.591551)"
    },
    {
        "Unnamed: 0": 3071354,
        "NAME": "大众快餐",
        "CITY": "金华市",
        "COUNTY": "义乌市",
        "LON": 119.934044,
        "LAT": 29.262268,
        "SUBTYPE": "快餐厅",
        "geometry": "POINT (119.934044 29.262268)"
    },
    {
        "Unnamed: 0": 4124639,
        "NAME": "小锁风味小吃",
        "CITY": "温州市",
        "COUNTY": "鹿城区",
        "LON": 120.50428,
        "LAT": 28.068026,
        "SUBTYPE": "中餐厅",
        "geometry": "POINT (120.50428 28.068026)"
    },
    {
        "Unnamed: 0": 3826252,
        "NAME": "Cafe My Cake麦格(胜利店)",
        "CITY": "金华市",
        "COUNTY": "永康市",
        "LON": 120.032791,
        "LAT": 28.895506,
        "SUBTYPE": "糕饼店",
        "geometry": "POINT (120.032791 28.895506)"
    },
    {
        "Unnamed: 0": 1887773,
        "NAME": "柴记饭店",
        "CITY": "衢州市",
        "COUNTY": "江山市",
        "LON": 118.596367,
        "LAT": 28.698824,
        "SUBTYPE": "中餐厅",
        "geometry": "POINT (118.596367 28.698824)"
    },
    {
        "Unnamed: 0": 4343631,
        "NAME": "动力鸡车(群益街店)",
        "CITY": "湖州市",
        "COUNTY": "德清县",
        "LON": 119.972382,
        "LAT": 30.53068,
        "SUBTYPE": "快餐厅",
        "geometry": "POINT (119.972382 30.53068)"
    },
    {
        "Unnamed: 0": 3069118,
        "NAME": "麦香村休闲屋",
        "CITY": "金华市",
        "COUNTY": "义乌市",
        "LON": 120.118256,
        "LAT": 29.373604,
        "SUBTYPE": "糕饼店",
        "geometry": "POINT (120.118256 29.373604)"
    },
    {
        "Unnamed: 0": 4792349,
        "NAME": "好客来美食城(建设西路)",
        "CITY": "台州市",
        "COUNTY": "仙居县",
        "LON": 120.734581,
        "LAT": 28.8452,
        "SUBTYPE": "中餐厅",
        "geometry": "POINT (120.734581 28.8452)"
    },
    {
        "Unnamed: 0": 3071116,
        "NAME": "正宗重庆麻辣烫",
        "CITY": "金华市",
        "COUNTY": "义乌市",
        "LON": 120.055809,
        "LAT": 29.367352,
        "SUBTYPE": "中餐厅",
        "geometry": "POINT (120.055809 29.367352)"
    },
    {
        "Unnamed: 0": 2965954,
        "NAME": "闽杭饭店",
        "CITY": "杭州市",
        "COUNTY": "拱墅区",
        "LON": 120.155983,
        "LAT": 30.319225,
        "SUBTYPE": "中餐厅",
        "geometry": "POINT (120.155983 30.319225)"
    },
    {
        "Unnamed: 0": 1989853,
        "NAME": "鑫生饭庄",
        "CITY": "宁波市",
        "COUNTY": "慈溪市",
        "LON": 121.133942,
        "LAT": 30.189972,
        "SUBTYPE": "中餐厅",
        "geometry": "POINT (121.133942 30.189972)"
    },
    {
        "Unnamed: 0": 1792984,
        "NAME": "酸奶小屋",
        "CITY": "宁波市",
        "COUNTY": "海曙区",
        "LON": 121.542923,
        "LAT": 29.878723,
        "SUBTYPE": "餐饮相关场所",
        "geometry": "POINT (121.542923 29.878723)"
    },
    {
        "Unnamed: 0": 3370308,
        "NAME": "沙县小吃(商城西路)",
        "CITY": "金华市",
        "COUNTY": "东阳市",
        "LON": 120.221802,
        "LAT": 29.261625,
        "SUBTYPE": "中餐厅",
        "geometry": "POINT (120.221802 29.261625)"
    },
    {
        "Unnamed: 0": 1008016,
        "NAME": "好食汇饭店",
        "CITY": "宁波市",
        "COUNTY": "鄞州区",
        "LON": 121.590187,
        "LAT": 29.842276,
        "SUBTYPE": "餐饮相关场所",
        "geometry": "POINT (121.590187 29.842276)"
    },
    {
        "Unnamed: 0": 2928342,
        "NAME": "乐源茶楼棋牌",
        "CITY": "杭州市",
        "COUNTY": "萧山区",
        "LON": 120.270409,
        "LAT": 30.155945,
        "SUBTYPE": "茶艺馆",
        "geometry": "POINT (120.270409 30.155945)"
    },
    {
        "Unnamed: 0": 45681,
        "NAME": "向阳正宗兰州拉面",
        "CITY": "宁波市",
        "COUNTY": "宁海县",
        "LON": 121.467949,
        "LAT": 29.348494,
        "SUBTYPE": "中餐厅",
        "geometry": "POINT (121.467949 29.348494)"
    },
    {
        "Unnamed: 0": 3327067,
        "NAME": "五一茶吧",
        "CITY": "湖州市",
        "COUNTY": "吴兴区",
        "LON": 120.105324,
        "LAT": 30.866116,
        "SUBTYPE": "茶艺馆",
        "geometry": "POINT (120.105324 30.866116)"
    },
    {
        "Unnamed: 0": 2297411,
        "NAME": "军民酒家",
        "CITY": "杭州市",
        "COUNTY": "滨江区",
        "LON": 120.232147,
        "LAT": 30.187017,
        "SUBTYPE": "餐饮相关场所",
        "geometry": "POINT (120.232147 30.187017)"
    },
    {
        "Unnamed: 0": 651731,
        "NAME": "壹兜麦香(岩屿店)",
        "CITY": "台州市",
        "COUNTY": "椒江区",
        "LON": 121.424828,
        "LAT": 28.67588,
        "SUBTYPE": "糕饼店",
        "geometry": "POINT (121.424828 28.67588)"
    },
    {
        "Unnamed: 0": 4339597,
        "NAME": "万紫千红(振兴路)",
        "CITY": "湖州市",
        "COUNTY": "南浔区",
        "LON": 120.411903,
        "LAT": 30.712002,
        "SUBTYPE": "中餐厅",
        "geometry": "POINT (120.411903 30.712002)"
    },
    {
        "Unnamed: 0": 13317,
        "NAME": "向日葵主题餐厅(下沙店)",
        "CITY": "杭州市",
        "COUNTY": "江干区",
        "LON": 120.382126,
        "LAT": 30.309059,
        "SUBTYPE": "中餐厅",
        "geometry": "POINT (120.382126 30.309059)"
    },
    {
        "Unnamed: 0": 4335620,
        "NAME": "益民面馆",
        "CITY": "湖州市",
        "COUNTY": "长兴县",
        "LON": 119.911697,
        "LAT": 31.007708,
        "SUBTYPE": "中餐厅",
        "geometry": "POINT (119.911697 31.007708)"
    },
    {
        "Unnamed: 0": 4122492,
        "NAME": "卡其多(山下后巷店)",
        "CITY": "温州市",
        "COUNTY": "鹿城区",
        "LON": 120.701439,
        "LAT": 28.003458,
        "SUBTYPE": "冷饮店",
        "geometry": "POINT (120.701439 28.003458)"
    },
    {
        "Unnamed: 0": 496347,
        "NAME": "美味坊(前路街)",
        "CITY": "丽水市",
        "COUNTY": "青田县",
        "LON": 120.286842,
        "LAT": 28.138592,
        "SUBTYPE": "中餐厅",
        "geometry": "POINT (120.286842 28.138592)"
    },
    {
        "Unnamed: 0": 2923241,
        "NAME": "独门食坊",
        "CITY": "杭州市",
        "COUNTY": "江干区",
        "LON": 120.376122,
        "LAT": 30.309999,
        "SUBTYPE": "快餐厅",
        "geometry": "POINT (120.376122 30.309999)"
    },
    {
        "Unnamed: 0": 1390004,
        "NAME": "武汉绝味鸭脖(戴梦得购物中心南)",
        "CITY": "嘉兴市",
        "COUNTY": "南湖区",
        "LON": 120.748962,
        "LAT": 30.761599,
        "SUBTYPE": "餐饮相关场所",
        "geometry": "POINT (120.748962 30.761599)"
    },
    {
        "Unnamed: 0": 4780242,
        "NAME": "重庆川菜馆",
        "CITY": "台州市",
        "COUNTY": "黄岩区",
        "LON": 121.221146,
        "LAT": 28.670452,
        "SUBTYPE": "中餐厅",
        "geometry": "POINT (121.221146 28.670452)"
    },
    {
        "Unnamed: 0": 1393648,
        "NAME": "禾东忆家小吃店",
        "CITY": "嘉兴市",
        "COUNTY": "南湖区",
        "LON": 120.775131,
        "LAT": 30.777161,
        "SUBTYPE": "中餐厅",
        "geometry": "POINT (120.775131 30.777161)"
    },
    {
        "Unnamed: 0": 2922655,
        "NAME": "味之美熟食",
        "CITY": "杭州市",
        "COUNTY": "江干区",
        "LON": 120.262772,
        "LAT": 30.31111,
        "SUBTYPE": "餐饮相关场所",
        "geometry": "POINT (120.262772 30.31111)"
    },
    {
        "Unnamed: 0": 4118817,
        "NAME": "矮人饭摊",
        "CITY": "温州市",
        "COUNTY": "瓯海区",
        "LON": 120.566223,
        "LAT": 27.976196,
        "SUBTYPE": "餐饮相关场所",
        "geometry": "POINT (120.566223 27.976196)"
    },
    {
        "Unnamed: 0": 288675,
        "NAME": "华莱士(艮塔东路)",
        "CITY": "绍兴市",
        "COUNTY": "诸暨市",
        "LON": 120.249168,
        "LAT": 29.712069,
        "SUBTYPE": "快餐厅",
        "geometry": "POINT (120.249168 29.712069)"
    },
    {
        "Unnamed: 0": 1997885,
        "NAME": "江西农家菜馆(银峰北路)",
        "CITY": "宁波市",
        "COUNTY": "奉化区",
        "LON": 121.43589,
        "LAT": 29.664112,
        "SUBTYPE": "中餐厅",
        "geometry": "POINT (121.43589 29.664112)"
    },
    {
        "Unnamed: 0": 2014254,
        "NAME": "兰州拉面",
        "CITY": "宁波市",
        "COUNTY": "北仑区",
        "LON": 121.99501,
        "LAT": 29.794884,
        "SUBTYPE": "中餐厅",
        "geometry": "POINT (121.99501 29.794884)"
    },
    {
        "Unnamed: 0": 3056441,
        "NAME": "烤鸽坊自助休闲烤吧",
        "CITY": "金华市",
        "COUNTY": "义乌市",
        "LON": 120.026009,
        "LAT": 29.205055,
        "SUBTYPE": "中餐厅",
        "geometry": "POINT (120.026009 29.205055)"
    },
    {
        "Unnamed: 0": 4339197,
        "NAME": "祥和面馆",
        "CITY": "湖州市",
        "COUNTY": "南浔区",
        "LON": 120.41098,
        "LAT": 30.705181,
        "SUBTYPE": "快餐厅",
        "geometry": "POINT (120.41098 30.705181)"
    },
    {
        "Unnamed: 0": 2295750,
        "NAME": "川湘红粉世家",
        "CITY": "杭州市",
        "COUNTY": "滨江区",
        "LON": 120.147385,
        "LAT": 30.182743,
        "SUBTYPE": "中餐厅",
        "geometry": "POINT (120.147385 30.182743)"
    },
    {
        "Unnamed: 0": 3370338,
        "NAME": "磐安粗粮馆",
        "CITY": "金华市",
        "COUNTY": "东阳市",
        "LON": 120.232773,
        "LAT": 29.266197,
        "SUBTYPE": "中餐厅",
        "geometry": "POINT (120.232773 29.266197)"
    },
    {
        "Unnamed: 0": 3450554,
        "NAME": "鱼头王食坊口",
        "CITY": "金华市",
        "COUNTY": "东阳市",
        "LON": 120.174629,
        "LAT": 29.29138,
        "SUBTYPE": "中餐厅",
        "geometry": "POINT (120.174629 29.29138)"
    },
    {
        "Unnamed: 0": 3068409,
        "NAME": "福建沙县营养小吃",
        "CITY": "金华市",
        "COUNTY": "义乌市",
        "LON": 120.060822,
        "LAT": 29.333237,
        "SUBTYPE": "中餐厅",
        "geometry": "POINT (120.060822 29.333237)"
    },
    {
        "Unnamed: 0": 1989799,
        "NAME": "福建沙县小吃大排档",
        "CITY": "宁波市",
        "COUNTY": "慈溪市",
        "LON": 121.330521,
        "LAT": 30.227152,
        "SUBTYPE": "中餐厅",
        "geometry": "POINT (121.330521 30.227152)"
    },
    {
        "Unnamed: 0": 4117664,
        "NAME": "正宗重庆饭店",
        "CITY": "温州市",
        "COUNTY": "瓯海区",
        "LON": 120.564445,
        "LAT": 27.973927,
        "SUBTYPE": "中餐厅",
        "geometry": "POINT (120.564445 27.973927)"
    },
    {
        "Unnamed: 0": 2290101,
        "NAME": "正宗重庆酸辣粉",
        "CITY": "杭州市",
        "COUNTY": "建德市",
        "LON": 119.282677,
        "LAT": 29.47654,
        "SUBTYPE": "中餐厅",
        "geometry": "POINT (119.282677 29.47654)"
    },
    {
        "Unnamed: 0": 3987903,
        "NAME": "煌上煌(富阳店)",
        "CITY": "杭州市",
        "COUNTY": "富阳区",
        "LON": 119.944481,
        "LAT": 30.049036,
        "SUBTYPE": "餐饮相关场所",
        "geometry": "POINT (119.944481 30.049036)"
    },
    {
        "Unnamed: 0": 3829119,
        "NAME": "实惠小炒",
        "CITY": "金华市",
        "COUNTY": "武义县",
        "LON": 119.835739,
        "LAT": 28.964514,
        "SUBTYPE": "中餐厅",
        "geometry": "POINT (119.835739 28.964514)"
    },
    {
        "Unnamed: 0": 2951639,
        "NAME": "5178",
        "CITY": "杭州市",
        "COUNTY": "拱墅区",
        "LON": 120.154198,
        "LAT": 30.31848,
        "SUBTYPE": "中餐厅",
        "geometry": "POINT (120.154198 30.31848)"
    },
    {
        "Unnamed: 0": 4149339,
        "NAME": "优优奶茶",
        "CITY": "温州市",
        "COUNTY": "瑞安市",
        "LON": 120.695686,
        "LAT": 27.796244,
        "SUBTYPE": "冷饮店",
        "geometry": "POINT (120.695686 27.796244)"
    },
    {
        "Unnamed: 0": 1993666,
        "NAME": "果麦de鲜饮创作(兴宁路店)",
        "CITY": "宁波市",
        "COUNTY": "鄞州区",
        "LON": 121.566612,
        "LAT": 29.852142,
        "SUBTYPE": "冷饮店",
        "geometry": "POINT (121.566612 29.852142)"
    },
    {
        "Unnamed: 0": 4341616,
        "NAME": "启江小吃",
        "CITY": "湖州市",
        "COUNTY": "安吉县",
        "LON": 119.683823,
        "LAT": 30.6271,
        "SUBTYPE": "中餐厅",
        "geometry": "POINT (119.683823 30.6271)"
    },
    {
        "Unnamed: 0": 3285388,
        "NAME": "小雄海鲜糕",
        "CITY": "台州市",
        "COUNTY": "椒江区",
        "LON": 121.41597,
        "LAT": 28.614595,
        "SUBTYPE": "中餐厅",
        "geometry": "POINT (121.41597 28.614595)"
    },
    {
        "Unnamed: 0": 2881941,
        "NAME": "七欣天品蟹轩(钱王街)",
        "CITY": "杭州市",
        "COUNTY": "临安区",
        "LON": 119.705414,
        "LAT": 30.22209,
        "SUBTYPE": "中餐厅",
        "geometry": "POINT (119.705414 30.22209)"
    },
    {
        "Unnamed: 0": 399944,
        "NAME": "忠鑫餐馆",
        "CITY": "舟山市",
        "COUNTY": "普陀区",
        "LON": 122.200165,
        "LAT": 29.697771,
        "SUBTYPE": "中餐厅",
        "geometry": "POINT (122.200165 29.697771)"
    },
    {
        "Unnamed: 0": 3065485,
        "NAME": "吉祥馄饨(丹溪二区店)",
        "CITY": "金华市",
        "COUNTY": "义乌市",
        "LON": 120.058853,
        "LAT": 29.323978,
        "SUBTYPE": "中餐厅",
        "geometry": "POINT (120.058853 29.323978)"
    },
    {
        "Unnamed: 0": 4792880,
        "NAME": "胖子面馆(柔桥路)",
        "CITY": "台州市",
        "COUNTY": "黄岩区",
        "LON": 121.273697,
        "LAT": 28.653519,
        "SUBTYPE": "中餐厅",
        "geometry": "POINT (121.273697 28.653519)"
    },
    {
        "Unnamed: 0": 286082,
        "NAME": "吉祥馄饨(江东店)",
        "CITY": "绍兴市",
        "COUNTY": "诸暨市",
        "LON": 120.255402,
        "LAT": 29.705013,
        "SUBTYPE": "中餐厅",
        "geometry": "POINT (120.255402 29.705013)"
    },
    {
        "Unnamed: 0": 1547492,
        "NAME": "老叶蛋饼",
        "CITY": "嘉兴市",
        "COUNTY": "海盐县",
        "LON": 120.946304,
        "LAT": 30.509659,
        "SUBTYPE": "中餐厅",
        "geometry": "POINT (120.946304 30.509659)"
    },
    {
        "Unnamed: 0": 3987504,
        "NAME": "沙县小吃",
        "CITY": "杭州市",
        "COUNTY": "富阳区",
        "LON": 119.942253,
        "LAT": 30.095562,
        "SUBTYPE": "中餐厅",
        "geometry": "POINT (119.942253 30.095562)"
    },
    {
        "Unnamed: 0": 2918789,
        "NAME": "袄袄的小小美食",
        "CITY": "杭州市",
        "COUNTY": "江干区",
        "LON": 120.284058,
        "LAT": 30.30265,
        "SUBTYPE": "快餐厅",
        "geometry": "POINT (120.284058 30.30265)"
    },
    {
        "Unnamed: 0": 4791638,
        "NAME": "辉煌酒店",
        "CITY": "台州市",
        "COUNTY": "仙居县",
        "LON": 120.484947,
        "LAT": 28.738194,
        "SUBTYPE": "中餐厅",
        "geometry": "POINT (120.484947 28.738194)"
    },
    {
        "Unnamed: 0": 3065680,
        "NAME": "享甜(篁园店)",
        "CITY": "金华市",
        "COUNTY": "义乌市",
        "LON": 120.08036,
        "LAT": 29.301249,
        "SUBTYPE": "冷饮店",
        "geometry": "POINT (120.08036 29.301249)"
    },
    {
        "Unnamed: 0": 2940332,
        "NAME": "老潘家温州熟食",
        "CITY": "杭州市",
        "COUNTY": "西湖区",
        "LON": 120.098953,
        "LAT": 30.275974,
        "SUBTYPE": "餐饮相关场所",
        "geometry": "POINT (120.098953 30.275974)"
    },
    {
        "Unnamed: 0": 4149328,
        "NAME": "老侯粉馆",
        "CITY": "温州市",
        "COUNTY": "瑞安市",
        "LON": 120.638031,
        "LAT": 27.782961,
        "SUBTYPE": "中餐厅",
        "geometry": "POINT (120.638031 27.782961)"
    },
    {
        "Unnamed: 0": 650775,
        "NAME": "江南春海鲜砂锅粥",
        "CITY": "台州市",
        "COUNTY": "椒江区",
        "LON": 121.498009,
        "LAT": 28.716089,
        "SUBTYPE": "中餐厅",
        "geometry": "POINT (121.498009 28.716089)"
    },
    {
        "Unnamed: 0": 2939227,
        "NAME": "绝味鸭脖(三墩店)",
        "CITY": "杭州市",
        "COUNTY": "西湖区",
        "LON": 120.082283,
        "LAT": 30.322655,
        "SUBTYPE": "餐饮相关场所",
        "geometry": "POINT (120.082283 30.322655)"
    },
    {
        "Unnamed: 0": 4121804,
        "NAME": "乐乐餐厅",
        "CITY": "温州市",
        "COUNTY": "鹿城区",
        "LON": 120.63768,
        "LAT": 28.027103,
        "SUBTYPE": "中餐厅",
        "geometry": "POINT (120.63768 28.027103)"
    },
    {
        "Unnamed: 0": 2964993,
        "NAME": "灌汤煎包",
        "CITY": "杭州市",
        "COUNTY": "拱墅区",
        "LON": 120.104553,
        "LAT": 30.336946,
        "SUBTYPE": "中餐厅",
        "geometry": "POINT (120.104553 30.336946)"
    },
    {
        "Unnamed: 0": 1390220,
        "NAME": "阿六饭店(泰坤国际大厦西北)",
        "CITY": "嘉兴市",
        "COUNTY": "南湖区",
        "LON": 120.749016,
        "LAT": 30.766567,
        "SUBTYPE": "中餐厅",
        "geometry": "POINT (120.749016 30.766567)"
    },
    {
        "Unnamed: 0": 1396970,
        "NAME": "湖仙记(桐乡店)",
        "CITY": "嘉兴市",
        "COUNTY": "桐乡市",
        "LON": 120.568726,
        "LAT": 30.626965,
        "SUBTYPE": "中餐厅",
        "geometry": "POINT (120.568726 30.626965)"
    },
    {
        "Unnamed: 0": 2952382,
        "NAME": "温州黄牛馆(大关苑店)",
        "CITY": "杭州市",
        "COUNTY": "拱墅区",
        "LON": 120.154144,
        "LAT": 30.309408,
        "SUBTYPE": "中餐厅",
        "geometry": "POINT (120.154144 30.309408)"
    },
    {
        "Unnamed: 0": 2014013,
        "NAME": "鑫源饭店",
        "CITY": "宁波市",
        "COUNTY": "北仑区",
        "LON": 121.995911,
        "LAT": 29.87916,
        "SUBTYPE": "中餐厅",
        "geometry": "POINT (121.995911 29.87916)"
    },
    {
        "Unnamed: 0": 930633,
        "NAME": "玲灵私房菜",
        "CITY": "宁波市",
        "COUNTY": "余姚市",
        "LON": 121.137573,
        "LAT": 30.042797,
        "SUBTYPE": "中餐厅",
        "geometry": "POINT (121.137573 30.042797)"
    },
    {
        "Unnamed: 0": 4605937,
        "NAME": "老爷爷柴火鸭",
        "CITY": "台州市",
        "COUNTY": "路桥区",
        "LON": 121.392944,
        "LAT": 28.564474,
        "SUBTYPE": "快餐厅",
        "geometry": "POINT (121.392944 28.564474)"
    },
    {
        "Unnamed: 0": 4128629,
        "NAME": "金元饭店(飞云江路)",
        "CITY": "温州市",
        "COUNTY": "龙湾区",
        "LON": 120.748535,
        "LAT": 27.973883,
        "SUBTYPE": "中餐厅",
        "geometry": "POINT (120.748535 27.973883)"
    },
    {
        "Unnamed: 0": 3065895,
        "NAME": "金三角特色烤肉",
        "CITY": "金华市",
        "COUNTY": "义乌市",
        "LON": 120.128914,
        "LAT": 29.404039,
        "SUBTYPE": "餐饮相关场所",
        "geometry": "POINT (120.128914 29.404039)"
    },
    {
        "Unnamed: 0": 295660,
        "NAME": "面大王(中兴南路)",
        "CITY": "绍兴市",
        "COUNTY": "越城区",
        "LON": 120.586967,
        "LAT": 29.994108,
        "SUBTYPE": "中餐厅",
        "geometry": "POINT (120.586967 29.994108)"
    },
    {
        "Unnamed: 0": 2915346,
        "NAME": "兰州正宗牛肉拉面(学源街店)",
        "CITY": "杭州市",
        "COUNTY": "江干区",
        "LON": 120.335289,
        "LAT": 30.31811,
        "SUBTYPE": "中餐厅",
        "geometry": "POINT (120.335289 30.31811)"
    },
    {
        "Unnamed: 0": 2966465,
        "NAME": "精弘食苑",
        "CITY": "杭州市",
        "COUNTY": "拱墅区",
        "LON": 120.163231,
        "LAT": 30.294638,
        "SUBTYPE": "中餐厅",
        "geometry": "POINT (120.163231 30.294638)"
    },
    {
        "Unnamed: 0": 4341210,
        "NAME": "兰州正宗牛肉面",
        "CITY": "湖州市",
        "COUNTY": "安吉县",
        "LON": 119.675987,
        "LAT": 30.611757,
        "SUBTYPE": "中餐厅",
        "geometry": "POINT (119.675987 30.611757)"
    },
    {
        "Unnamed: 0": 1887114,
        "NAME": "重庆鸡公煲(虎山二街店)",
        "CITY": "衢州市",
        "COUNTY": "江山市",
        "LON": 118.61541,
        "LAT": 28.714226,
        "SUBTYPE": "中餐厅",
        "geometry": "POINT (118.61541 28.714226)"
    },
    {
        "Unnamed: 0": 3358298,
        "NAME": "尚品宫",
        "CITY": "金华市",
        "COUNTY": "兰溪市",
        "LON": 119.476303,
        "LAT": 29.214359,
        "SUBTYPE": "中餐厅",
        "geometry": "POINT (119.476303 29.214359)"
    },
    {
        "Unnamed: 0": 278540,
        "NAME": "大众川菜馆(东方大道)",
        "CITY": "台州市",
        "COUNTY": "临海市",
        "LON": 121.165985,
        "LAT": 28.873878,
        "SUBTYPE": "中餐厅",
        "geometry": "POINT (121.165985 28.873878)"
    },
    {
        "Unnamed: 0": 2962904,
        "NAME": "一品小炒",
        "CITY": "杭州市",
        "COUNTY": "拱墅区",
        "LON": 120.151787,
        "LAT": 30.325518,
        "SUBTYPE": "中餐厅",
        "geometry": "POINT (120.151787 30.325518)"
    },
    {
        "Unnamed: 0": 409089,
        "NAME": "高地私房菜",
        "CITY": "温州市",
        "COUNTY": "乐清市",
        "LON": 120.956612,
        "LAT": 28.118887,
        "SUBTYPE": "中餐厅",
        "geometry": "POINT (120.956612 28.118887)"
    },
    {
        "Unnamed: 0": 640809,
        "NAME": "老李豆浆店",
        "CITY": "台州市",
        "COUNTY": "椒江区",
        "LON": 121.428146,
        "LAT": 28.677404,
        "SUBTYPE": "餐饮相关场所",
        "geometry": "POINT (121.428146 28.677404)"
    },
    {
        "Unnamed: 0": 1388099,
        "NAME": "香酥板栗饼(洪合分店)",
        "CITY": "嘉兴市",
        "COUNTY": "秀洲区",
        "LON": 120.663597,
        "LAT": 30.680988,
        "SUBTYPE": "餐饮相关场所",
        "geometry": "POINT (120.663597 30.680988)"
    },
    {
        "Unnamed: 0": 2313292,
        "NAME": "兰溪手擀面(政法街)",
        "CITY": "杭州市",
        "COUNTY": "余杭区",
        "LON": 120.311844,
        "LAT": 30.411148,
        "SUBTYPE": "中餐厅",
        "geometry": "POINT (120.311844 30.411148)"
    },
    {
        "Unnamed: 0": 4142604,
        "NAME": "傅氏凉茶店",
        "CITY": "温州市",
        "COUNTY": "苍南县",
        "LON": 120.423416,
        "LAT": 27.523071,
        "SUBTYPE": "冷饮店",
        "geometry": "POINT (120.423416 27.523071)"
    },
    {
        "Unnamed: 0": 1897761,
        "NAME": "吉祥粥店",
        "CITY": "衢州市",
        "COUNTY": "柯城区",
        "LON": 118.886009,
        "LAT": 28.94224,
        "SUBTYPE": "中餐厅",
        "geometry": "POINT (118.886009 28.94224)"
    },
    {
        "Unnamed: 0": 958420,
        "NAME": "多味饭店",
        "CITY": "杭州市",
        "COUNTY": "桐庐县",
        "LON": 119.708687,
        "LAT": 29.828609,
        "SUBTYPE": "中餐厅",
        "geometry": "POINT (119.708687 29.828609)"
    },
    {
        "Unnamed: 0": 52751,
        "NAME": "煎饺名店",
        "CITY": "丽水市",
        "COUNTY": "莲都区",
        "LON": 119.927711,
        "LAT": 28.44957,
        "SUBTYPE": "中餐厅",
        "geometry": "POINT (119.927711 28.44957)"
    }
]